radio_id,radio_name,rssi,lqi,crc,software_version,board_serial_number,time_stamp_ms,callsign,barometer_pressure,barometer_2_pressure,press_ref,ground_elev,ground_temp,pitot_ducer_press,timestamp,run_number,gs_lat,gs_lon,gs_alt,gs_baro,gs_temp,fcb_state_number,rot_vel_x,rot_vel_y,rot_vel_z,accel_x,accel_y,accel_z,magnetic_field_x,magnetic_field_y,magnetic_field_z,angle_vertical,roll,pitch,yaw,orientation_quaternion,orientation_rpy,temperature,fcb_altitude,v_speed,fcb_latitude,fcb_longitude,gps_alt,fcb_battery_voltage,ground_speed,course_over_ground,gps_time,gps_sats,ble_client,distance,Latitude,Longitude,GPS Alt,Hdop,Fix Quality,Satellites,gps_string,pyro_continuity,pyro_status,flash_usage,line_cutter_number,line_cutter_0_state,line_cutter_0_time_stamp_ms,line_cutter_0_barometer_pressure,line_cutter_0_fcb_altitude,line_cutter_0_delta_alt,line_cutter_0_temperature,line_cutter_0_accel_z,line_cutter_0_battery_voltage,line_cutter_0_cut_1,line_cutter_0_cut_2,line_cutter_0_current_sense,line_cutter_0_photoresistor,line_cutter_0_limitVel,line_cutter_0_altitude1,line_cutter_0_altitude2,line_cutter_0_disreefDelay1,line_cutter_0_disreefDelay2,line_cutter_0_pwmVoltage1,line_cutter_0_pwmVoltage2,line_cutter_0_pwmDuration,line_cutter_0_lightThreshold,line_cutter_0_lightTriggerTime,line_cutter_0_seaLevelPressure
0,433 MHz Radio,-70 db,8,Good,0,0,604884,KM6GNL,0.973205029964447,0.9735504388809204,0.9735948443412781,0.0,14.850000381469727,212.39999389648438,2023-06-26 19:12:42.407000,1,,,,,,,,,,,,,,,,,,,,,,,,,,,,,,,,,,,,,,,,,,,,,,,,,,,,,,,,,,,,,,,,,,,,
,,,,,,,,,,,,,,,2023-06-26 19:12:42.480254,1,0.0,0.0,0.0,0.9750900567480878,26.43,,,,,,,,,,,,,,,,,,,,,,,,,,,,,,,,,,,,,,,,,,,,,,,,,,,,,,,,,,,,,,,
0,433 MHz Radio,-65 db,9,Good,0,0,605006,KM6GNL,,,,,,,2023-06-26 19:12:42.533186,1,,,,,,6,0.0,0.0,0.0,-0.0,-0.0,-0.0,88.5,0.0,0.0,90.0,0.0,0.0,0.0,"[1.0, 0.0, 0.0, 0.0]","[0.0, 0.0, 0.0]",,,,,,,,,,,,,,,,,,,,,,,,,,,,,,,,,,,,,,,,,,,,,,,
0,433 MHz Radio,-67 db,9,Good,0,0,605006,KM6GNL,,,,,,,2023-06-26 19:12:42.593795,1,,,,,,6,,,,,,,,,,,,,,,,24.610000610351562,-1880003.375,-6078.75390625,34.127360026041664,-118.20836588541667,212.5,0.0,0.0,0.0,2023-06-26 19:12:38,12,0,0.0,,,,,,,,,,,,,,,,,,,,,,,,,,,,,,,,,,
,,,,,,,,,,,,,,,2023-06-26 19:12:42.599186,1,,,,,,,,,,,,,,,,,,,,,,,,,,,,,,,,,,,0,0,0,0,,0,,,,,,,,,,,,,,,,,,,,,,,,,,,,
,,,,,,,,,,,,,,,2023-06-26 19:12:42.678035,1,,,,,,,,,,,,,,,,,,,,,,,,,,,,,,,,,,,41.98073561166667,-91.79069488166667,255.747,0.9,RTK fixed,13,"$GPGGA,115739.00,4158.8441367,N,09147.4416929,W,4,13,0.9,255.747,M,-32.00,M,01,0000*6E
",,,,,,,,,,,,,,,,,,,,,,,,,,,
0,433 MHz Radio,-64 db,6,Good,0,0,605203,KM6GNL,,,,,,,2023-06-26 19:12:42.724714,1,,,,,,6,0.0,0.0,0.0,-0.0,-0.0,-0.0,88.5,0.0,0.0,90.0,0.0,0.0,0.0,"[1.0, 0.0, 0.0, 0.0]","[0.0, 0.0, 0.0]",,,,,,,,,,,,,,,,,,,,,,,,,,,,,,,,,,,,,,,,,,,,,,,
0,433 MHz Radio,-63 db,9,Good,0,0,605203,KM6GNL,,,,,,,2023-06-26 19:12:42.894528,1,,,,,,6,,,,,,,,,,,,,,,,24.6299991607666,-1881188.875,-6080.6669921875,34.127360026041664,-118.20836588541667,212.5,0.0,0.0,0.0,2023-06-26 19:12:38,12,0,0.0,,,,,,,,,,,,,,,,,,,,,,,,,,,,,,,,,,
0,433 MHz Radio,-41 db,9,Bad,0,0,151600357,,,,,,,,2023-06-26 19:12:42.961654,1,,,,,,9,,,,,,,,,,,,,,,,1.6495023458867976e-33,1.6495023458867976e-33,1.6495023458867976e-33,1.6495023458867976e-33,1.6495023458867976e-33,1.6495023458867976e-33,1.6495023458867976e-33,8.485765848273877e-34,1.6495023458867976e-33,1974-10-21 04:31:21,9,9,5875368.444265995,,,,,,,,,,,,,,,,,,,,,,,,,,,,,,,,,,
,,,,,,,,,,,,,,,2023-06-26 19:12:42.972828,1,,,,,,,,,,,,,,,,,,,,,,,,,,,,,,,,,,,41.98073561166667,-91.79069488166667,255.747,0.9,RTK fixed,13,"$GPGGA,115739.00,4158.8441367,N,09147.4416929,W,4,13,0.9,255.747,M,-32.00,M,01,0000*6E
",,,,,,,,,,,,,,,,,,,,,,,,,,,
,,,,,,,,,,,,,,,2023-06-26 19:12:43.101009,1,,,,,,,,,,,,,,,,,,,,,,,,,,,,,,,,,,,41.98073561166667,-91.79069488166667,255.747,0.9,RTK fixed,13,"$GPGGA,115739.00,4158.8441367,N,09147.4416929,W,4,13,0.9,255.747,M,-32.00,M,01,0000*6E
",,,,,,,,,,,,,,,,,,,,,,,,,,,
0,433 MHz Radio,-70 db,10,Bad,0,0,605610,KM6GNL,,,,,,,2023-06-26 19:12:43.115581,1,,,,,,6,0.0,0.0,0.0,-2.2958874039497803e-41,-0.0,-0.0,88.5,0.0,0.0,90.0,0.0,0.0,0.0,"[1.0, 0.0, 0.0, 0.0]","[0.0, 0.0, 0.0]",,,,,,,,,,,,,,,,,,,,,,,,,,,,,,,,,,,,,,,,,,,,,,,
0,433 MHz Radio,-71 db,15,Good,0,0,605610,KM6GNL,,,,,,,2023-06-26 19:12:43.173204,1,,,,,,6,,,,,,,,,,,,,,,,24.639999389648438,-1883652.375,-6084.6396484375,34.127360026041664,-118.20836588541667,212.5,0.0,0.0,0.0,2023-06-26 19:12:38,12,0,0.0,,,,,,,,,,,,,,,,,,,,,,,,,,,,,,,,,,
0,433 MHz Radio,-72 db,14,Good,0,0,605640,KM6GNL,,,,,,,2023-06-26 19:12:43.189212,1,,,,,,,,,,,,,,,,,,,,,,,,,,,,,,,,,,,,,,,,,,"[False, False, False, False, False, False]","[False, False, False, False, False, False, False, False, False, False, False, False, False, False, False, False]",5,,,,,,,,,,,,,,,,,,,,,,,,
0,433 MHz Radio,-72 db,13,Bad,0,0,605640,KM6GNl,,,,,,,2023-06-26 19:12:43.229742,1,,,,,,,,,,,,,,,,,,,,,,,,,,,,,,,,,,,,,,,,,,,,,0,0,0,0,0.0,0.0,0.0,0.0,0.0,0,0,0,0,,,,,,,,,,,
0,433 MHz Radio,-72 db,14,Good,0,0,605640,KM6GNL,,,,,,,2023-06-26 19:12:43.266038,1,,,,,,,,,,,,,,,,,,,,,,,,,,,,,,,,,,,,,,,,,,,,,0,0,0,0,0.0,0.0,0.0,0.0,0.0,0,0,0,0,,,,,,,,,,,
,,,,,,,,,,,,,,,2023-06-26 19:12:43.268805,1,,,,,,,,,,,,,,,,,,,,,,,,,,,,,,,,,,,41.98073561166667,-91.79069488166667,255.747,0.9,RTK fixed,13,"$GPGGA,115739.00,4158.8441367,N,09147.4416929,W,4,13,0.9,255.747,M,-32.00,M,01,0000*6E
",,,,,,,,,,,,,,,,,,,,,,,,,,,
,,,,,,,,,,,,,,,2023-06-26 19:12:43.297119,1,,,,,,,,,,,,,,,,,,,,,,,,,,,,,,,,,,,41.98073561166667,-91.79069488166667,255.747,0.9,RTK fixed,13,"$GPGGA,115739.00,4158.8441367,N,09147.4416929,W,4,13,0.9,255.747,M,-32.00,M,01,0000*6E
",,,,,,,,,,,,,,,,,,,,,,,,,,,
0,433 MHz Radio,-72 db,15,Bad,0,0,605807,KM6GNL,,,,,,,2023-06-26 19:12:43.319388,1,,,,,,6,0.0,0.0,0.0,-0.0,-0.0,-0.0,88.5,0.0,0.0,192.4,0.0,0.0,0.0,"[1.0, 0.0, 0.0, 0.0]","[0.0, 0.0, 0.0]",,,,,,,,,,,,,,,,,,,,,,,,,,,,,,,,,,,,,,,,,,,,,,,
0,433 MHz Radio,-71 db,13,Good,0,0,605807,KM6GNL,,,,,,,2023-06-26 19:12:43.610922,1,,,,,,6,,,,,,,,,,,,,,,,24.649999618530273,-1884839.0,-6086.552734375,34.127360026041664,-118.20836588541667,212.60000610351562,0.0,0.0,0.0,2023-06-26 19:12:38,12,0,0.0,,,,,,,,,,,,,,,,,,,,,,,,,,,,,,,,,,
,,,,,,,,,,,,,,,2023-06-26 19:12:43.628688,1,,,,,,,,,,,,,,,,,,,,,,,,,,,,,,,,,,,41.98073561166667,-91.79069488166667,255.747,0.9,RTK fixed,13,"$GPGGA,115739.00,4158.8441367,N,09147.4416929,W,4,13,0.9,255.747,M,-32.00,M,01,0000*6E
",,,,,,,,,,,,,,,,,,,,,,,,,,,
,,,,,,,,,,,,,,,2023-06-26 19:12:43.935940,1,,,,,,,,,,,,,,,,,,,,,,,,,,,,,,,,,,,41.98073561166667,-91.79069488166667,255.747,0.9,RTK fixed,13,"$GPGGA,115739.00,4158.8441367,N,09147.4416929,W,4,13,0.9,255.747,M,-32.00,M,01,0000*6E
",,,,,,,,,,,,,,,,,,,,,,,,,,,
,,,,,,,,,,,,,,,2023-06-26 19:12:43.952674,1,,,,,,,,,,,,,,,,,,,,,,,,,,,,,,,,,,,41.98073561166667,-91.79069488166667,255.747,0.9,RTK fixed,13,"$GPGGA,115739.00,4158.8441367,N,09147.4416929,W,4,13,0.9,255.747,M,-32.00,M,01,0000*6E
",,,,,,,,,,,,,,,,,,,,,,,,,,,
,,,,,,,,,,,,,,,2023-06-26 19:12:44.273770,1,,,,,,,,,,,,,,,,,,,,,,,,,,,,,,,,,,,41.98073561166667,-91.79069488166667,255.747,0.9,RTK fixed,13,"$GPGGA,115739.00,4158.8441367,N,09147.4416929,W,4,13,0.9,255.747,M,-32.00,M,01,0000*6E
",,,,,,,,,,,,,,,,,,,,,,,,,,,
,,,,,,,,,,,,,,,2023-06-26 19:12:44.275283,1,,,,,,,,,,,,,,,,,,,,,,,,,,,,,,,,,,,41.98073561166667,-91.79069488166667,255.747,0.9,RTK fixed,13,"$GPGGA,115739.00,4158.8441367,N,09147.4416929,W,4,13,0.9,255.747,M,-32.00,M,01,0000*6E
",,,,,,,,,,,,,,,,,,,,,,,,,,,
,,,,,,,,,,,,,,,2023-06-26 19:12:44.427245,1,,,,,,,,,,,,,,,,,,,,,,,,,,,,,,,,,,,41.98073561166667,-91.79069488166667,255.747,0.9,RTK fixed,13,"$GPGGA,115739.00,4158.8441367,N,09147.4416929,W,4,13,0.9,255.747,M,-32.00,M,01,0000*6E
",,,,,,,,,,,,,,,,,,,,,,,,,,,
,,,,,,,,,,,,,,,2023-06-26 19:12:44.596623,1,0.0,0.0,0.0,0.9721786331112756,26.35,,,,,,,,,,,,,,,,,,,,,,,,,,,,,,,,,,,,,,,,,,,,,,,,,,,,,,,,,,,,,,,
,,,,,,,,,,,,,,,2023-06-26 19:12:44.603545,1,,,,,,,,,,,,,,,,,,,,,,,,,,,,,,,,,,,41.98073561166667,-91.79069488166667,255.747,0.9,RTK fixed,13,"$GPGGA,115739.00,4158.8441367,N,09147.4416929,W,4,13,0.9,255.747,M,-32.00,M,01,0000*6E
",,,,,,,,,,,,,,,,,,,,,,,,,,,
,,,,,,,,,,,,,,,2023-06-26 19:12:44.923232,1,,,,,,,,,,,,,,,,,,,,,,,,,,,,,,,,,,,41.98073561166667,-91.79069488166667,255.747,0.9,RTK fixed,13,"$GPGGA,115739.00,4158.8441367,N,09147.4416929,W,4,13,0.9,255.747,M,-32.00,M,01,0000*6E
",,,,,,,,,,,,,,,,,,,,,,,,,,,
,,,,,,,,,,,,,,,2023-06-26 19:12:44.926058,1,,,,,,,,,,,,,,,,,,,,,,,,,,,,,,,,,,,41.98073561166667,-91.79069488166667,255.747,0.9,RTK fixed,13,"$GPGGA,115739.00,4158.8441367,N,09147.4416929,W,4,13,0.9,255.747,M,-32.00,M,01,0000*6E
",,,,,,,,,,,,,,,,,,,,,,,,,,,
,,,,,,,,,,,,,,,2023-06-26 19:12:45.308599,1,,,,,,,,,,,,,,,,,,,,,,,,,,,,,,,,,,,41.98073561166667,-91.79069488166667,255.747,0.9,RTK fixed,13,"$GPGGA,115739.00,4158.8441367,N,09147.4416929,W,4,13,0.9,255.747,M,-32.00,M,01,0000*6E
",,,,,,,,,,,,,,,,,,,,,,,,,,,
,,,,,,,,,,,,,,,2023-06-26 19:12:45.310275,1,,,,,,,,,,,,,,,,,,,,,,,,,,,,,,,,,,,41.98073561166667,-91.79069488166667,255.747,0.9,RTK fixed,13,"$GPGGA,115739.00,4158.8441367,N,09147.4416929,W,4,13,0.9,255.747,M,-32.00,M,01,0000*6E
",,,,,,,,,,,,,,,,,,,,,,,,,,,
,,,,,,,,,,,,,,,2023-06-26 19:12:45.311749,1,,,,,,,,,,,,,,,,,,,,,,,,,,,,,,,,,,,41.98073561166667,-91.79069488166667,255.747,0.9,RTK fixed,13,"$GPGGA,115739.00,4158.8441367,N,09147.4416929,W,4,13,0.9,255.747,M,-32.00,M,01,0000*6E
",,,,,,,,,,,,,,,,,,,,,,,,,,,
,,,,,,,,,,,,,,,2023-06-26 19:12:45.312617,1,,,,,,,,,,,,,,,,,,,,,,,,,,,,,,,,,,,41.98073561166667,-91.79069488166667,255.747,0.9,RTK fixed,13,"$GPGGA,115739.00,4158.8441367,N,09147.4416929,W,4,13,0.9,255.747,M,-32.00,M,01,0000*6E
",,,,,,,,,,,,,,,,,,,,,,,,,,,
,,,,,,,,,,,,,,,2023-06-26 19:12:45.595507,1,,,,,,,,,,,,,,,,,,,,,,,,,,,,,,,,,,,41.98073561166667,-91.79069488166667,255.747,0.9,RTK fixed,13,"$GPGGA,115739.00,4158.8441367,N,09147.4416929,W,4,13,0.9,255.747,M,-32.00,M,01,0000*6E
",,,,,,,,,,,,,,,,,,,,,,,,,,,
,,,,,,,,,,,,,,,2023-06-26 19:12:45.597129,1,,,,,,,,,,,,,,,,,,,,,,,,,,,,,,,,,,,41.98073561166667,-91.79069488166667,255.747,0.9,RTK fixed,13,"$GPGGA,115739.00,4158.8441367,N,09147.4416929,W,4,13,0.9,255.747,M,-32.00,M,01,0000*6E
",,,,,,,,,,,,,,,,,,,,,,,,,,,
,,,,,,,,,,,,,,,2023-06-26 19:12:45.928801,1,,,,,,,,,,,,,,,,,,,,,,,,,,,,,,,,,,,41.98073561166667,-91.79069488166667,255.747,0.9,RTK fixed,13,"$GPGGA,115739.00,4158.8441367,N,09147.4416929,W,4,13,0.9,255.747,M,-32.00,M,01,0000*6E
",,,,,,,,,,,,,,,,,,,,,,,,,,,
,,,,,,,,,,,,,,,2023-06-26 19:12:45.929555,1,,,,,,,,,,,,,,,,,,,,,,,,,,,,,,,,,,,41.98073561166667,-91.79069488166667,255.747,0.9,RTK fixed,13,"$GPGGA,115739.00,4158.8441367,N,09147.4416929,W,4,13,0.9,255.747,M,-32.00,M,01,0000*6E
",,,,,,,,,,,,,,,,,,,,,,,,,,,
,,,,,,,,,,,,,,,2023-06-26 19:12:46.263877,1,,,,,,,,,,,,,,,,,,,,,,,,,,,,,,,,,,,41.98073561166667,-91.79069488166667,255.747,0.9,RTK fixed,13,"$GPGGA,115739.00,4158.8441367,N,09147.4416929,W,4,13,0.9,255.747,M,-32.00,M,01,0000*6E
",,,,,,,,,,,,,,,,,,,,,,,,,,,
,,,,,,,,,,,,,,,2023-06-26 19:12:46.264415,1,,,,,,,,,,,,,,,,,,,,,,,,,,,,,,,,,,,41.98073561166667,-91.79069488166667,255.747,0.9,RTK fixed,13,"$GPGGA,115739.00,4158.8441367,N,09147.4416929,W,4,13,0.9,255.747,M,-32.00,M,01,0000*6E
",,,,,,,,,,,,,,,,,,,,,,,,,,,
,,,,,,,,,,,,,,,2023-06-26 19:12:46.423272,1,,,,,,,,,,,,,,,,,,,,,,,,,,,,,,,,,,,41.98073561166667,-91.79069488166667,255.747,0.9,RTK fixed,13,"$GPGGA,115739.00,4158.8441367,N,09147.4416929,W,4,13,0.9,255.747,M,-32.00,M,01,0000*6E
",,,,,,,,,,,,,,,,,,,,,,,,,,,
,,,,,,,,,,,,,,,2023-06-26 19:12:46.603219,1,0.0,0.0,0.0,0.972079940784604,26.37,,,,,,,,,,,,,,,,,,,,,,,,,,,,,,,,,,,,,,,,,,,,,,,,,,,,,,,,,,,,,,,
,,,,,,,,,,,,,,,2023-06-26 19:12:46.603837,1,,,,,,,,,,,,,,,,,,,,,,,,,,,,,,,,,,,41.98073561166667,-91.79069488166667,255.747,0.9,RTK fixed,13,"$GPGGA,115739.00,4158.8441367,N,09147.4416929,W,4,13,0.9,255.747,M,-32.00,M,01,0000*6E
",,,,,,,,,,,,,,,,,,,,,,,,,,,
,,,,,,,,,,,,,,,2023-06-26 19:12:46.932960,1,,,,,,,,,,,,,,,,,,,,,,,,,,,,,,,,,,,41.98073561166667,-91.79069488166667,255.747,0.9,RTK fixed,13,"$GPGGA,115739.00,4158.8441367,N,09147.4416929,W,4,13,0.9,255.747,M,-32.00,M,01,0000*6E
",,,,,,,,,,,,,,,,,,,,,,,,,,,
,,,,,,,,,,,,,,,2023-06-26 19:12:46.935177,1,,,,,,,,,,,,,,,,,,,,,,,,,,,,,,,,,,,41.98073561166667,-91.79069488166667,255.747,0.9,RTK fixed,13,"$GPGGA,115739.00,4158.8441367,N,09147.4416929,W,4,13,0.9,255.747,M,-32.00,M,01,0000*6E
",,,,,,,,,,,,,,,,,,,,,,,,,,,
,,,,,,,,,,,,,,,2023-06-26 19:12:47.254946,1,,,,,,,,,,,,,,,,,,,,,,,,,,,,,,,,,,,41.98073561166667,-91.79069488166667,255.747,0.9,RTK fixed,13,"$GPGGA,115739.00,4158.8441367,N,09147.4416929,W,4,13,0.9,255.747,M,-32.00,M,01,0000*6E
",,,,,,,,,,,,,,,,,,,,,,,,,,,
,,,,,,,,,,,,,,,2023-06-26 19:12:47.255674,1,,,,,,,,,,,,,,,,,,,,,,,,,,,,,,,,,,,41.98073561166667,-91.79069488166667,255.747,0.9,RTK fixed,13,"$GPGGA,115739.00,4158.8441367,N,09147.4416929,W,4,13,0.9,255.747,M,-32.00,M,01,0000*6E
",,,,,,,,,,,,,,,,,,,,,,,,,,,
,,,,,,,,,,,,,,,2023-06-26 19:12:47.590076,1,,,,,,,,,,,,,,,,,,,,,,,,,,,,,,,,,,,41.98073561166667,-91.79069488166667,255.747,0.9,RTK fixed,13,"$GPGGA,115739.00,4158.8441367,N,09147.4416929,W,4,13,0.9,255.747,M,-32.00,M,01,0000*6E
",,,,,,,,,,,,,,,,,,,,,,,,,,,
,,,,,,,,,,,,,,,2023-06-26 19:12:47.590934,1,,,,,,,,,,,,,,,,,,,,,,,,,,,,,,,,,,,41.98073561166667,-91.79069488166667,255.747,0.9,RTK fixed,13,"$GPGGA,115739.00,4158.8441367,N,09147.4416929,W,4,13,0.9,255.747,M,-32.00,M,01,0000*6E
",,,,,,,,,,,,,,,,,,,,,,,,,,,
,,,,,,,,,,,,,,,2023-06-26 19:12:47.952027,1,,,,,,,,,,,,,,,,,,,,,,,,,,,,,,,,,,,41.98073561166667,-91.79069488166667,255.747,0.9,RTK fixed,13,"$GPGGA,115739.00,4158.8441367,N,09147.4416929,W,4,13,0.9,255.747,M,-32.00,M,01,0000*6E
",,,,,,,,,,,,,,,,,,,,,,,,,,,
,,,,,,,,,,,,,,,2023-06-26 19:12:47.963577,1,,,,,,,,,,,,,,,,,,,,,,,,,,,,,,,,,,,41.98073561166667,-91.79069488166667,255.747,0.9,RTK fixed,13,"$GPGGA,115739.00,4158.8441367,N,09147.4416929,W,4,13,0.9,255.747,M,-32.00,M,01,0000*6E
",,,,,,,,,,,,,,,,,,,,,,,,,,,
,,,,,,,,,,,,,,,2023-06-26 19:12:48.249310,1,,,,,,,,,,,,,,,,,,,,,,,,,,,,,,,,,,,41.98073561166667,-91.79069488166667,255.747,0.9,RTK fixed,13,"$GPGGA,115739.00,4158.8441367,N,09147.4416929,W,4,13,0.9,255.747,M,-32.00,M,01,0000*6E
",,,,,,,,,,,,,,,,,,,,,,,,,,,
,,,,,,,,,,,,,,,2023-06-26 19:12:48.249656,1,,,,,,,,,,,,,,,,,,,,,,,,,,,,,,,,,,,41.98073561166667,-91.79069488166667,255.747,0.9,RTK fixed,13,"$GPGGA,115739.00,4158.8441367,N,09147.4416929,W,4,13,0.9,255.747,M,-32.00,M,01,0000*6E
",,,,,,,,,,,,,,,,,,,,,,,,,,,
,,,,,,,,,,,,,,,2023-06-26 19:12:48.412460,1,,,,,,,,,,,,,,,,,,,,,,,,,,,,,,,,,,,41.98073561166667,-91.79069488166667,255.747,0.9,RTK fixed,13,"$GPGGA,115739.00,4158.8441367,N,09147.4416929,W,4,13,0.9,255.747,M,-32.00,M,01,0000*6E
",,,,,,,,,,,,,,,,,,,,,,,,,,,
,,,,,,,,,,,,,,,2023-06-26 19:12:48.603619,1,0.0,0.0,0.0,0.9721983715766099,26.38,,,,,,,,,,,,,,,,,,,,,,,,,,,,,,,,,,,,,,,,,,,,,,,,,,,,,,,,,,,,,,,
,,,,,,,,,,,,,,,2023-06-26 19:12:48.615444,1,,,,,,,,,,,,,,,,,,,,,,,,,,,,,,,,,,,41.98073561166667,-91.79069488166667,255.747,0.9,RTK fixed,13,"$GPGGA,115739.00,4158.8441367,N,09147.4416929,W,4,13,0.9,255.747,M,-32.00,M,01,0000*6E
",,,,,,,,,,,,,,,,,,,,,,,,,,,
,,,,,,,,,,,,,,,2023-06-26 19:12:48.949642,1,,,,,,,,,,,,,,,,,,,,,,,,,,,,,,,,,,,41.98073561166667,-91.79069488166667,255.747,0.9,RTK fixed,13,"$GPGGA,115739.00,4158.8441367,N,09147.4416929,W,4,13,0.9,255.747,M,-32.00,M,01,0000*6E
",,,,,,,,,,,,,,,,,,,,,,,,,,,
,,,,,,,,,,,,,,,2023-06-26 19:12:48.952896,1,,,,,,,,,,,,,,,,,,,,,,,,,,,,,,,,,,,41.98073561166667,-91.79069488166667,255.747,0.9,RTK fixed,13,"$GPGGA,115739.00,4158.8441367,N,09147.4416929,W,4,13,0.9,255.747,M,-32.00,M,01,0000*6E
",,,,,,,,,,,,,,,,,,,,,,,,,,,
,,,,,,,,,,,,,,,2023-06-26 19:12:49.264630,1,,,,,,,,,,,,,,,,,,,,,,,,,,,,,,,,,,,41.98073561166667,-91.79069488166667,255.747,0.9,RTK fixed,13,"$GPGGA,115739.00,4158.8441367,N,09147.4416929,W,4,13,0.9,255.747,M,-32.00,M,01,0000*6E
",,,,,,,,,,,,,,,,,,,,,,,,,,,
,,,,,,,,,,,,,,,2023-06-26 19:12:49.265342,1,,,,,,,,,,,,,,,,,,,,,,,,,,,,,,,,,,,41.98073561166667,-91.79069488166667,255.747,0.9,RTK fixed,13,"$GPGGA,115739.00,4158.8441367,N,09147.4416929,W,4,13,0.9,255.747,M,-32.00,M,01,0000*6E
",,,,,,,,,,,,,,,,,,,,,,,,,,,
,,,,,,,,,,,,,,,2023-06-26 19:12:49.500254,1,,,,,,,,,,,,,,,,,,,,,,,,,,,,,,,,,,,41.98073561166667,-91.79069488166667,255.747,0.9,RTK fixed,13,"$GPGGA,115739.00,4158.8441367,N,09147.4416929,W,4,13,0.9,255.747,M,-32.00,M,01,0000*6E
",,,,,,,,,,,,,,,,,,,,,,,,,,,
0,433 MHz Radio,-56 db,3,Good,0,0,612015,KM6GNL,,,,,,,2023-06-26 19:12:49.527254,1,,,,,,6,0.0,0.0,0.0,-0.0,-0.0,-0.0,88.5,0.0,0.0,90.0,0.0,0.0,0.0,"[1.0, 0.0, 0.0, 0.0]","[0.0, 0.0, 0.0]",,,,,,,,,,,,,,,,,,,,,,,,,,,,,,,,,,,,,,,,,,,,,,,
0,433 MHz Radio,-58 db,4,Good,0,0,612015,KM6GNL,,,,,,,2023-06-26 19:12:49.604270,1,,,,,,6,,,,,,,,,,,,,,,,23.719999313354492,-1922456.375,-6146.88427734375,34.12736409505208,-118.20836588541667,212.5,0.0,0.0,0.0,2023-06-26 19:12:48,12,0,0.4513537133099659,,,,,,,,,,,,,,,,,,,,,,,,,,,,,,,,,,
,,,,,,,,,,,,,,,2023-06-26 19:12:49.605936,1,,,,,,,,,,,,,,,,,,,,,,,,,,,,,,,,,,,41.98073561166667,-91.79069488166667,255.747,0.9,RTK fixed,13,"$GPGGA,115739.00,4158.8441367,N,09147.4416929,W,4,13,0.9,255.747,M,-32.00,M,01,0000*6E
",,,,,,,,,,,,,,,,,,,,,,,,,,,
,,,,,,,,,,,,,,,2023-06-26 19:12:49.690103,1,,,,,,,,,,,,,,,,,,,,,,,,,,,,,,,,,,,41.98073561166667,-91.79069488166667,255.747,0.9,RTK fixed,13,"$GPGGA,115739.00,4158.8441367,N,09147.4416929,W,4,13,0.9,255.747,M,-32.00,M,01,0000*6E
",,,,,,,,,,,,,,,,,,,,,,,,,,,
0,433 MHz Radio,-62 db,5,Good,0,0,612210,KM6GNL,,,,,,,2023-06-26 19:12:49.737088,1,,,,,,6,0.0,0.0,0.0,-0.0,-0.0,-0.0,88.5,0.0,0.0,90.0,0.0,0.0,0.0,"[1.0, 0.0, 0.0, 0.0]","[0.0, 0.0, 0.0]",,,,,,,,,,,,,,,,,,,,,,,,,,,,,,,,,,,,,,,,,,,,,,,
0,433 MHz Radio,-62 db,5,Good,0,0,612210,KM6GNL,,,,,,,2023-06-26 19:12:49.891564,1,,,,,,6,,,,,,,,,,,,,,,,23.670000076293945,-1923655.125,-6148.79736328125,34.12736409505208,-118.20836588541667,212.5,0.0,0.0,0.0,2023-06-26 19:12:48,12,0,0.4513537133099659,,,,,,,,,,,,,,,,,,,,,,,,,,,,,,,,,,
0,433 MHz Radio,-34 db,16,Bad,4,8,612407,kM6GNL,,,,,,,2023-06-26 19:12:49.927658,1,,,,,,16,,,,,,,,,,,,,,,,23.59000015258789,-481213.5625,-6150.7099609375,34.64403076171875,-7741441.466666667,425.0,2.524354896707238e-29,1.461605712436385e-29,2.8411366687849113e-29,1978-07-16 18:49:04,16,16,6384370.005531892,,,,,,,,,,,,,,,,,,,,,,,,,,,,,,,,,,
,,,,,,,,,,,,,,,2023-06-26 19:12:49.930192,1,,,,,,,,,,,,,,,,,,,,,,,,,,,,,,,,,,,41.98073561166667,-91.79069488166667,255.747,0.9,RTK fixed,13,"$GPGGA,115739.00,4158.8441367,N,09147.4416929,W,4,13,0.9,255.747,M,-32.00,M,01,0000*6E
",,,,,,,,,,,,,,,,,,,,,,,,,,,
,,,,,,,,,,,,,,,2023-06-26 19:12:49.934147,1,,,,,,,,,,,,,,,,,,,,,,,,,,,,,,,,,,,41.98073561166667,-91.79069488166667,255.747,0.9,RTK fixed,13,"$GPGGA,115739.00,4158.8441367,N,09147.4416929,W,4,13,0.9,255.747,M,-32.00,M,01,0000*6E
",,,,,,,,,,,,,,,,,,,,,,,,,,,
0,433 MHz Radio,-66 db,4,Good,0,0,612439,KM6GNL,0.9289020299911499,0.9264742136001587,0.9735948443412781,0.0,14.850000381469727,212.5,2023-06-26 19:12:50.074208,1,,,,,,,,,,,,,,,,,,,,,,,,,,,,,,,,,,,,,,,,,,,,,,,,,,,,,,,,,,,,,,,,,,,,
0,433 MHz Radio,-55 db,3,Good,0,0,612604,KM6GNL,,,,,,,2023-06-26 19:12:50.099370,1,,,,,,6,0.0,0.0,0.0,-0.0,-0.0,-0.0,88.5,0.0,0.0,90.0,0.0,0.0,0.0,"[1.0, 0.0, 0.0, 0.0]","[0.0, 0.0, 0.0]",,,,,,,,,,,,,,,,,,,,,,,,,,,,,,,,,,,,,,,,,,,,,,,
0,433 MHz Radio,-55 db,4,Good,0,0,612604,KM6GNL,,,,,,,2023-06-26 19:12:50.176412,1,,,,,,6,,,,,,,,,,,,,,,,23.610000610351562,-1926053.875,-6152.623046875,34.12736409505208,-118.20836588541667,212.5,0.0,0.0,0.0,2023-06-26 19:12:48,12,0,0.4513537133099659,,,,,,,,,,,,,,,,,,,,,,,,,,,,,,,,,,
0,433 MHz Radio,-53 db,3,Good,0,0,612683,KM6GNL,,,,,,,2023-06-26 19:12:50.180714,1,,,,,,,,,,,,,,,,,,,,,,,,,,,,,,,,,,,,,,,,,,"[False, False, False, False, False, False]","[False, False, False, False, False, False, False, False, False, False, False, False, False, False, False, False]",5,,,,,,,,,,,,,,,,,,,,,,,,
0,433 MHz Radio,-54 db,3,Good,0,0,612683,KM6GNL,,,,,,,2023-06-26 19:12:50.214913,1,,,,,,,,,,,,,,,,,,,,,,,,,,,,,,,,,,,,,,,,,,,,,0,0,0,0,0.0,0.0,0.0,0.0,0.0,0,0,0,0,,,,,,,,,,,
0,433 MHz Radio,-54 db,2,Good,0,0,612683,KM6GNL,,,,,,,2023-06-26 19:12:50.265010,1,,,,,,,,,,,,,,,,,,,,,,,,,,,,,,,,,,,,,,,,,,,,,0,0,0,0,0.0,0.0,0.0,0.0,0.0,0,0,0,0,,,,,,,,,,,
0,433 MHz Radio,-47 db,3,Good,0,0,612803,KM6GNL,,,,,,,2023-06-26 19:12:50.276700,1,,,,,,6,0.0,0.0,0.0,-0.0,-0.0,-0.0,88.5,0.0,0.0,90.0,0.0,0.0,0.0,"[1.0, 0.0, 0.0, 0.0]","[0.0, 0.0, 0.0]",,,,,,,,,,,,,,,,,,,,,,,,,,,,,,,,,,,,,,,,,,,,,,,
,,,,,,,,,,,,,,,2023-06-26 19:12:50.279935,1,,,,,,,,,,,,,,,,,,,,,,,,,,,,,,,,,,,41.98073561166667,-91.79069488166667,255.747,0.9,RTK fixed,13,"$GPGGA,115739.00,4158.8441367,N,09147.4416929,W,4,13,0.9,255.747,M,-32.00,M,01,0000*6E
",,,,,,,,,,,,,,,,,,,,,,,,,,,
,,,,,,,,,,,,,,,2023-06-26 19:12:50.282499,1,,,,,,,,,,,,,,,,,,,,,,,,,,,,,,,,,,,41.98073561166667,-91.79069488166667,255.747,0.9,RTK fixed,13,"$GPGGA,115739.00,4158.8441367,N,09147.4416929,W,4,13,0.9,255.747,M,-32.00,M,01,0000*6E
",,,,,,,,,,,,,,,,,,,,,,,,,,,
,,,,,,,,,,,,,,,2023-06-26 19:12:50.283630,1,,,,,,,,,,,,,,,,,,,,,,,,,,,,,,,,,,,41.98073561166667,-91.79069488166667,255.747,0.9,RTK fixed,13,"$GPGGA,115739.00,4158.8441367,N,09147.4416929,W,4,13,0.9,255.747,M,-32.00,M,01,0000*6E
",,,,,,,,,,,,,,,,,,,,,,,,,,,
,,,,,,,,,,,,,,,2023-06-26 19:12:50.296074,1,,,,,,,,,,,,,,,,,,,,,,,,,,,,,,,,,,,41.98073561166667,-91.79069488166667,255.747,0.9,RTK fixed,13,"$GPGGA,115739.00,4158.8441367,N,09147.4416929,W,4,13,0.9,255.747,M,-32.00,M,01,0000*6E
",,,,,,,,,,,,,,,,,,,,,,,,,,,
0,433 MHz Radio,-53 db,3,Good,0,0,612803,KM6GNL,,,,,,,2023-06-26 19:12:50.420567,1,,,,,,6,,,,,,,,,,,,,,,,23.6299991607666,-1927253.875,-6154.5361328125,34.12736409505208,-118.20836588541667,212.39999389648438,0.0,0.0,0.0,2023-06-26 19:12:48,12,0,0.4513537133099659,,,,,,,,,,,,,,,,,,,,,,,,,,,,,,,,,,
,,,,,,,,,,,,,,,2023-06-26 19:12:50.496356,1,0.0,0.0,0.0,0.9749124105600789,26.45,,,,,,,,,,,,,,,,,,,,,,,,,,,,,,,,,,,,,,,,,,,,,,,,,,,,,,,,,,,,,,,
0,433 MHz Radio,-50 db,3,Good,0,0,613000,KM6GNL,,,,,,,2023-06-26 19:12:50.509606,1,,,,,,6,0.0,0.0,0.0,-0.0,-0.0,-0.0,88.5,0.0,0.0,90.0,0.0,0.0,0.0,"[1.0, 0.0, 0.0, 0.0]","[0.0, 0.0, 0.0]",,,,,,,,,,,,,,,,,,,,,,,,,,,,,,,,,,,,,,,,,,,,,,,
0,433 MHz Radio,-50 db,2,Good,0,0,613000,KM6GNL,,,,,,,2023-06-26 19:12:50.586082,1,,,,,,6,,,,,,,,,,,,,,,,23.639999389648438,-1928454.125,-6156.44921875,34.12736409505208,-118.20836588541667,212.39999389648438,0.0,0.0,0.0,2023-06-26 19:12:48,12,0,0.4513537133099659,,,,,,,,,,,,,,,,,,,,,,,,,,,,,,,,,,
,,,,,,,,,,,,,,,2023-06-26 19:12:50.589014,1,,,,,,,,,,,,,,,,,,,,,,,,,,,,,,,,,,,41.98073561166667,-91.79069488166667,255.747,0.9,RTK fixed,13,"$GPGGA,115739.00,4158.8441367,N,09147.4416929,W,4,13,0.9,255.747,M,-32.00,M,01,0000*6E
",,,,,,,,,,,,,,,,,,,,,,,,,,,
,,,,,,,,,,,,,,,2023-06-26 19:12:50.682460,1,,,,,,,,,,,,,,,,,,,,,,,,,,,,,,,,,,,41.98073561166667,-91.79069488166667,255.747,0.9,RTK fixed,13,"$GPGGA,115739.00,4158.8441367,N,09147.4416929,W,4,13,0.9,255.747,M,-32.00,M,01,0000*6E
",,,,,,,,,,,,,,,,,,,,,,,,,,,
0,433 MHz Radio,-51 db,3,Good,0,0,613212,KM6GNL,,,,,,,2023-06-26 19:12:50.728719,1,,,,,,6,0.0,0.0,0.0,-0.0,-0.0,-0.0,88.5,0.0,0.0,90.0,0.0,0.0,0.0,"[1.0, 0.0, 0.0, 0.0]","[0.0, 0.0, 0.0]",,,,,,,,,,,,,,,,,,,,,,,,,,,,,,,,,,,,,,,,,,,,,,,
0,433 MHz Radio,-52 db,2,Good,0,0,613212,KM6GNL,,,,,,,2023-06-26 19:12:50.893991,1,,,,,,6,,,,,,,,,,,,,,,,23.649999618530273,-1929747.25,-6158.50927734375,34.12736409505208,-118.20836588541667,212.39999389648438,0.0,0.0,0.0,2023-06-26 19:12:48,12,0,0.4513537133099659,,,,,,,,,,,,,,,,,,,,,,,,,,,,,,,,,,
0,433 MHz Radio,-51 db,3,Good,0,0,613409,KM6GNL,,,,,,,2023-06-26 19:12:50.920696,1,,,,,,6,0.0,0.0,0.0,-0.0,-0.0,-0.0,88.5,0.0,0.0,90.0,0.0,0.0,0.0,"[1.0, 0.0, 0.0, 0.0]","[0.0, 0.0, 0.0]",,,,,,,,,,,,,,,,,,,,,,,,,,,,,,,,,,,,,,,,,,,,,,,
0,433 MHz Radio,-52 db,3,Good,0,0,613409,KM6GNL,,,,,,,2023-06-26 19:12:50.922052,1,,,,,,6,,,,,,,,,,,,,,,,23.670000076293945,-1930948.25,-6160.421875,34.12736409505208,-118.20836588541667,212.39999389648438,0.0,0.0,0.0,2023-06-26 19:12:48,12,0,0.4513537133099659,,,,,,,,,,,,,,,,,,,,,,,,,,,,,,,,,,
,,,,,,,,,,,,,,,2023-06-26 19:12:50.924464,1,,,,,,,,,,,,,,,,,,,,,,,,,,,,,,,,,,,41.98073561166667,-91.79069488166667,255.747,0.9,RTK fixed,13,"$GPGGA,115739.00,4158.8441367,N,09147.4416929,W,4,13,0.9,255.747,M,-32.00,M,01,0000*6E
",,,,,,,,,,,,,,,,,,,,,,,,,,,
,,,,,,,,,,,,,,,2023-06-26 19:12:51.078949,1,,,,,,,,,,,,,,,,,,,,,,,,,,,,,,,,,,,41.98073561166667,-91.79069488166667,255.747,0.9,RTK fixed,13,"$GPGGA,115739.00,4158.8441367,N,09147.4416929,W,4,13,0.9,255.747,M,-32.00,M,01,0000*6E
",,,,,,,,,,,,,,,,,,,,,,,,,,,
0,433 MHz Radio,-51 db,3,Good,0,0,613606,KM6GNL,,,,,,,2023-06-26 19:12:51.091418,1,,,,,,6,0.0,0.0,0.0,-0.0,-0.0,-0.0,88.5,0.0,0.0,90.0,0.0,0.0,0.0,"[1.0, 0.0, 0.0, 0.0]","[0.0, 0.0, 0.0]",,,,,,,,,,,,,,,,,,,,,,,,,,,,,,,,,,,,,,,,,,,,,,,
0,433 MHz Radio,-52 db,4,Good,0,0,613606,KM6GNL,,,,,,,2023-06-26 19:12:51.140708,1,,,,,,6,,,,,,,,,,,,,,,,23.68000030517578,-1932149.75,-6162.3349609375,34.12736409505208,-118.20836588541667,212.39999389648438,0.0,0.0,0.0,2023-06-26 19:12:48,12,0,0.4513537133099659,,,,,,,,,,,,,,,,,,,,,,,,,,,,,,,,,,
0,433 MHz Radio,-52 db,3,Good,0,0,613666,KM6GNL,0.9280533194541931,0.925319492816925,0.9735948443412781,0.0,14.850000381469727,212.39999389648438,2023-06-26 19:12:51.161985,1,,,,,,,,,,,,,,,,,,,,,,,,,,,,,,,,,,,,,,,,,,,,,,,,,,,,,,,,,,,,,,,,,,,,
0,433 MHz Radio,-52 db,2,Good,0,0,613696,KM6GNL,,,,,,,2023-06-26 19:12:51.213350,1,,,,,,,,,,,,,,,,,,,,,,,,,,,,,,,,,,,,,,,,,,"[False, False, False, False, False, False]","[False, False, False, False, False, False, False, False, False, False, False, False, False, False, False, False]",5,,,,,,,,,,,,,,,,,,,,,,,,
0,433 MHz Radio,-52 db,2,Good,0,0,613696,KM6GNL,,,,,,,2023-06-26 19:12:51.243686,1,,,,,,,,,,,,,,,,,,,,,,,,,,,,,,,,,,,,,,,,,,,,,0,0,0,0,0.0,0.0,0.0,0.0,0.0,0,0,0,0,,,,,,,,,,,
0,433 MHz Radio,-52 db,3,Good,0,0,613696,KM6GNL,,,,,,,2023-06-26 19:12:51.256883,1,,,,,,,,,,,,,,,,,,,,,,,,,,,,,,,,,,,,,,,,,,,,,0,0,0,0,0.0,0.0,0.0,0.0,0.0,0,0,0,0,,,,,,,,,,,
,,,,,,,,,,,,,,,2023-06-26 19:12:51.259285,1,,,,,,,,,,,,,,,,,,,,,,,,,,,,,,,,,,,41.98073561166667,-91.79069488166667,255.747,0.9,RTK fixed,13,"$GPGGA,115739.00,4158.8441367,N,09147.4416929,W,4,13,0.9,255.747,M,-32.00,M,01,0000*6E
",,,,,,,,,,,,,,,,,,,,,,,,,,,
,,,,,,,,,,,,,,,2023-06-26 19:12:51.296251,1,,,,,,,,,,,,,,,,,,,,,,,,,,,,,,,,,,,41.98073561166667,-91.79069488166667,255.747,0.9,RTK fixed,13,"$GPGGA,115739.00,4158.8441367,N,09147.4416929,W,4,13,0.9,255.747,M,-32.00,M,01,0000*6E
",,,,,,,,,,,,,,,,,,,,,,,,,,,
0,433 MHz Radio,-52 db,4,Good,0,0,613801,KM6GNL,,,,,,,2023-06-26 19:12:51.328289,1,,,,,,6,0.0,0.0,0.0,-0.0,-0.0,-0.0,88.5,0.0,0.0,90.0,0.0,0.0,0.0,"[1.0, 0.0, 0.0, 0.0]","[0.0, 0.0, 0.0]",,,,,,,,,,,,,,,,,,,,,,,,,,,,,,,,,,,,,,,,,,,,,,,
0,433 MHz Radio,-53 db,3,Good,0,0,613801,KM6GNL,,,,,,,2023-06-26 19:12:51.496341,1,,,,,,6,,,,,,,,,,,,,,,,23.719999313354492,-1933351.625,-6164.248046875,34.12736409505208,-118.20836588541667,212.39999389648438,0.0,0.0,0.0,2023-06-26 19:12:48,12,0,0.4513537133099659,,,,,,,,,,,,,,,,,,,,,,,,,,,,,,,,,,
0,433 MHz Radio,-53 db,3,Good,0,0,614013,KM6GNL,,,,,,,2023-06-26 19:12:51.513034,1,,,,,,6,0.0,0.0,0.0,-0.0,-0.0,-0.0,88.5,0.0,0.0,90.0,0.0,0.0,0.0,"[1.0, 0.0, 0.0, 0.0]","[0.0, 0.0, 0.0]",,,,,,,,,,,,,,,,,,,,,,,,,,,,,,,,,,,,,,,,,,,,,,,
0,433 MHz Radio,-53 db,4,Good,0,0,614013,KM6GNL,,,,,,,2023-06-26 19:12:51.580614,1,,,,,,6,,,,,,,,,,,,,,,,23.739999771118164,-1934646.25,-6166.30810546875,34.12736409505208,-118.20836588541667,212.39999389648438,0.0,0.0,0.0,2023-06-26 19:12:48,12,0,0.4513537133099659,,,,,,,,,,,,,,,,,,,,,,,,,,,,,,,,,,
,,,,,,,,,,,,,,,2023-06-26 19:12:51.583546,1,,,,,,,,,,,,,,,,,,,,,,,,,,,,,,,,,,,41.98073561166667,-91.79069488166667,255.747,0.9,RTK fixed,13,"$GPGGA,115739.00,4158.8441367,N,09147.4416929,W,4,13,0.9,255.747,M,-32.00,M,01,0000*6E
",,,,,,,,,,,,,,,,,,,,,,,,,,,
,,,,,,,,,,,,,,,2023-06-26 19:12:51.676732,1,,,,,,,,,,,,,,,,,,,,,,,,,,,,,,,,,,,41.98073561166667,-91.79069488166667,255.747,0.9,RTK fixed,13,"$GPGGA,115739.00,4158.8441367,N,09147.4416929,W,4,13,0.9,255.747,M,-32.00,M,01,0000*6E
",,,,,,,,,,,,,,,,,,,,,,,,,,,
0,433 MHz Radio,-52 db,3,Good,0,0,614210,KM6GNL,,,,,,,2023-06-26 19:12:51.706096,1,,,,,,6,0.0,0.0,0.0,-0.0,-0.0,-0.0,88.5,0.0,0.0,90.0,0.0,0.0,0.0,"[1.0, 0.0, 0.0, 0.0]","[0.0, 0.0, 0.0]",,,,,,,,,,,,,,,,,,,,,,,,,,,,,,,,,,,,,,,,,,,,,,,
0,433 MHz Radio,-52 db,3,Good,0,0,614210,KM6GNL,,,,,,,2023-06-26 19:12:51.891636,1,,,,,,6,,,,,,,,,,,,,,,,23.75,-1935848.875,-6168.22119140625,34.12736409505208,-118.20836588541667,212.39999389648438,0.0,0.0,0.0,2023-06-26 19:12:48,12,0,0.4513537133099659,,,,,,,,,,,,,,,,,,,,,,,,,,,,,,,,,,
0,433 MHz Radio,-52 db,2,Good,0,0,614407,KM6GNL,,,,,,,2023-06-26 19:12:51.913963,1,,,,,,6,0.0,0.0,0.0,-0.0,-0.0,-0.0,88.5,0.0,0.0,90.0,0.0,0.0,0.0,"[1.0, 0.0, 0.0, 0.0]","[0.0, 0.0, 0.0]",,,,,,,,,,,,,,,,,,,,,,,,,,,,,,,,,,,,,,,,,,,,,,,
0,433 MHz Radio,-53 db,4,Good,0,0,614407,KM6GNL,,,,,,,2023-06-26 19:12:51.915153,1,,,,,,6,,,,,,,,,,,,,,,,23.760000228881836,-1937051.875,-6170.1337890625,34.12736409505208,-118.20836588541667,212.3000030517578,0.0,0.0,0.0,2023-06-26 19:12:48,12,0,0.4513537133099659,,,,,,,,,,,,,,,,,,,,,,,,,,,,,,,,,,
,,,,,,,,,,,,,,,2023-06-26 19:12:51.917907,1,,,,,,,,,,,,,,,,,,,,,,,,,,,,,,,,,,,41.98073561166667,-91.79069488166667,255.747,0.9,RTK fixed,13,"$GPGGA,115739.00,4158.8441367,N,09147.4416929,W,4,13,0.9,255.747,M,-32.00,M,01,0000*6E
",,,,,,,,,,,,,,,,,,,,,,,,,,,
,,,,,,,,,,,,,,,2023-06-26 19:12:52.076247,1,,,,,,,,,,,,,,,,,,,,,,,,,,,,,,,,,,,41.98073561166667,-91.79069488166667,255.747,0.9,RTK fixed,13,"$GPGGA,115739.00,4158.8441367,N,09147.4416929,W,4,13,0.9,255.747,M,-32.00,M,01,0000*6E
",,,,,,,,,,,,,,,,,,,,,,,,,,,
0,433 MHz Radio,-52 db,3,Good,0,0,614604,KM6GNL,,,,,,,2023-06-26 19:12:52.114846,1,,,,,,6,0.0,0.0,0.0,-0.0,-0.0,-0.0,88.5,0.0,0.0,90.0,0.0,0.0,0.0,"[1.0, 0.0, 0.0, 0.0]","[0.0, 0.0, 0.0]",,,,,,,,,,,,,,,,,,,,,,,,,,,,,,,,,,,,,,,,,,,,,,,
0,433 MHz Radio,-52 db,4,Good,0,0,614604,KM6GNL,,,,,,,2023-06-26 19:12:52.252194,1,,,,,,6,,,,,,,,,,,,,,,,23.770000457763672,-1938255.25,-6172.046875,34.12736409505208,-118.20836588541667,212.3000030517578,0.0,0.0,0.0,2023-06-26 19:12:48,12,0,0.4513537133099659,,,,,,,,,,,,,,,,,,,,,,,,,,,,,,,,,,
,,,,,,,,,,,,,,,2023-06-26 19:12:52.255591,1,,,,,,,,,,,,,,,,,,,,,,,,,,,,,,,,,,,41.98073561166667,-91.79069488166667,255.747,0.9,RTK fixed,13,"$GPGGA,115739.00,4158.8441367,N,09147.4416929,W,4,13,0.9,255.747,M,-32.00,M,01,0000*6E
",,,,,,,,,,,,,,,,,,,,,,,,,,,
,,,,,,,,,,,,,,,2023-06-26 19:12:52.330895,1,,,,,,,,,,,,,,,,,,,,,,,,,,,,,,,,,,,41.98073561166667,-91.79069488166667,255.747,0.9,RTK fixed,13,"$GPGGA,115739.00,4158.8441367,N,09147.4416929,W,4,13,0.9,255.747,M,-32.00,M,01,0000*6E
",,,,,,,,,,,,,,,,,,,,,,,,,,,
0,433 MHz Radio,-52 db,4,Good,0,0,614801,KM6GNL,,,,,,,2023-06-26 19:12:52.331780,1,,,,,,6,0.0,0.0,0.0,-0.0,-0.0,-0.0,88.5,0.0,0.0,90.0,0.0,0.0,0.0,"[1.0, 0.0, 0.0, 0.0]","[0.0, 0.0, 0.0]",,,,,,,,,,,,,,,,,,,,,,,,,,,,,,,,,,,,,,,,,,,,,,,
0,433 MHz Radio,-52 db,3,Good,0,0,614801,KM6GNL,,,,,,,2023-06-26 19:12:52.332608,1,,,,,,6,,,,,,,,,,,,,,,,23.790000915527344,-1939458.875,-6173.9599609375,34.12736409505208,-118.20836588541667,212.1999969482422,0.0,0.0,0.0,2023-06-26 19:12:48,12,0,0.4513537133099659,,,,,,,,,,,,,,,,,,,,,,,,,,,,,,,,,,
0,433 MHz Radio,-52 db,3,Good,0,0,614801,KM6GNL,,,,,,,2023-06-26 19:12:52.347243,1,,,,,,,,,,,,,,,,,,,,,,,,,,,,,,,,,,,,,,,,,,"[False, False, False, False, False, False]","[False, False, False, False, False, False, False, False, False, False, False, False, False, False, False, False]",5,,,,,,,,,,,,,,,,,,,,,,,,
0,433 MHz Radio,-52 db,3,Good,0,0,614801,KM6GNL,,,,,,,2023-06-26 19:12:52.404110,1,,,,,,,,,,,,,,,,,,,,,,,,,,,,,,,,,,,,,,,,,,,,,0,0,0,0,0.0,0.0,0.0,0.0,0.0,0,0,0,0,,,,,,,,,,,
0,433 MHz Radio,-52 db,3,Good,0,0,614801,KM6GNL,,,,,,,2023-06-26 19:12:52.420742,1,,,,,,,,,,,,,,,,,,,,,,,,,,,,,,,,,,,,,,,,,,,,,0,0,0,0,0.0,0.0,0.0,0.0,0.0,0,0,0,0,,,,,,,,,,,
,,,,,,,,,,,,,,,2023-06-26 19:12:52.483460,1,0.0,0.0,0.0,0.9747446336047372,26.47,,,,,,,,,,,,,,,,,,,,,,,,,,,,,,,,,,,,,,,,,,,,,,,,,,,,,,,,,,,,,,,
0,433 MHz Radio,-52 db,4,Good,0,0,615011,KM6GNL,,,,,,,2023-06-26 19:12:52.508892,1,,,,,,6,0.0,0.0,0.0,-0.0,-0.0,-0.0,88.5,0.0,0.0,90.0,0.0,0.0,0.0,"[1.0, 0.0, 0.0, 0.0]","[0.0, 0.0, 0.0]",,,,,,,,,,,,,,,,,,,,,,,,,,,,,,,,,,,,,,,,,,,,,,,
0,433 MHz Radio,-52 db,3,Good,0,0,615011,KM6GNL,,,,,,,2023-06-26 19:12:52.609759,1,,,,,,6,,,,,,,,,,,,,,,,23.790000915527344,-1940755.625,-6176.02001953125,34.12736409505208,-118.20836588541667,212.1999969482422,0.0,0.0,0.0,2023-06-26 19:12:48,12,0,0.4513537133099659,,,,,,,,,,,,,,,,,,,,,,,,,,,,,,,,,,
,,,,,,,,,,,,,,,2023-06-26 19:12:52.636029,1,,,,,,,,,,,,,,,,,,,,,,,,,,,,,,,,,,,41.98073561166667,-91.79069488166667,255.747,0.9,RTK fixed,13,"$GPGGA,115739.00,4158.8441367,N,09147.4416929,W,4,13,0.9,255.747,M,-32.00,M,01,0000*6E
",,,,,,,,,,,,,,,,,,,,,,,,,,,
,,,,,,,,,,,,,,,2023-06-26 19:12:52.670135,1,,,,,,,,,,,,,,,,,,,,,,,,,,,,,,,,,,,41.98073561166667,-91.79069488166667,255.747,0.9,RTK fixed,13,"$GPGGA,115739.00,4158.8441367,N,09147.4416929,W,4,13,0.9,255.747,M,-32.00,M,01,0000*6E
",,,,,,,,,,,,,,,,,,,,,,,,,,,
0,433 MHz Radio,-52 db,3,Good,0,0,615208,KM6GNL,,,,,,,2023-06-26 19:12:52.702877,1,,,,,,6,0.0,0.0,0.0,-0.0,-0.0,-0.0,88.5,0.0,0.0,90.0,0.0,0.0,0.0,"[1.0, 0.0, 0.0, 0.0]","[0.0, 0.0, 0.0]",,,,,,,,,,,,,,,,,,,,,,,,,,,,,,,,,,,,,,,,,,,,,,,
0,433 MHz Radio,-52 db,3,Good,0,0,615208,KM6GNL,,,,,,,2023-06-26 19:12:52.916008,1,,,,,,6,,,,,,,,,,,,,,,,23.799999237060547,-1941960.125,-6177.93310546875,34.12736409505208,-118.20836588541667,212.1999969482422,0.0,0.0,0.0,2023-06-26 19:12:48,12,0,0.4513537133099659,,,,,,,,,,,,,,,,,,,,,,,,,,,,,,,,,,
0,433 MHz Radio,-52 db,3,Good,0,0,615405,KM6GNL,,,,,,,2023-06-26 19:12:52.929415,1,,,,,,6,0.0,0.0,0.0,-0.0,-0.0,-0.0,88.5,0.0,0.0,90.0,0.0,0.0,0.0,"[1.0, 0.0, 0.0, 0.0]","[0.0, 0.0, 0.0]",,,,,,,,,,,,,,,,,,,,,,,,,,,,,,,,,,,,,,,,,,,,,,,
0,433 MHz Radio,-52 db,3,Good,0,0,615405,KM6GNL,,,,,,,2023-06-26 19:12:52.942532,1,,,,,,6,,,,,,,,,,,,,,,,23.81999969482422,-1943165.0,-6179.845703125,34.12736409505208,-118.20836588541667,212.1999969482422,0.0,0.0,0.0,2023-06-26 19:12:48,12,0,0.4513537133099659,,,,,,,,,,,,,,,,,,,,,,,,,,,,,,,,,,
,,,,,,,,,,,,,,,2023-06-26 19:12:52.946644,1,,,,,,,,,,,,,,,,,,,,,,,,,,,,,,,,,,,41.98073561166667,-91.79069488166667,255.747,0.9,RTK fixed,13,"$GPGGA,115739.00,4158.8441367,N,09147.4416929,W,4,13,0.9,255.747,M,-32.00,M,01,0000*6E
",,,,,,,,,,,,,,,,,,,,,,,,,,,
,,,,,,,,,,,,,,,2023-06-26 19:12:53.084790,1,,,,,,,,,,,,,,,,,,,,,,,,,,,,,,,,,,,41.98073561166667,-91.79069488166667,255.747,0.9,RTK fixed,13,"$GPGGA,115739.00,4158.8441367,N,09147.4416929,W,4,13,0.9,255.747,M,-32.00,M,01,0000*6E
",,,,,,,,,,,,,,,,,,,,,,,,,,,
0,433 MHz Radio,-52 db,3,Good,0,0,615602,KM6GNL,,,,,,,2023-06-26 19:12:53.097275,1,,,,,,6,0.0,0.0,0.0,-0.0,-0.0,-0.0,88.5,0.0,0.0,90.0,0.0,0.0,0.0,"[1.0, 0.0, 0.0, 0.0]","[0.0, 0.0, 0.0]",,,,,,,,,,,,,,,,,,,,,,,,,,,,,,,,,,,,,,,,,,,,,,,
0,433 MHz Radio,-52 db,4,Good,0,0,615602,KM6GNL,,,,,,,2023-06-26 19:12:53.252282,1,,,,,,6,,,,,,,,,,,,,,,,23.84000015258789,-1944370.25,-6181.7587890625,34.12736409505208,-118.20836588541667,212.1999969482422,0.0,0.0,0.0,2023-06-26 19:12:48,12,0,0.4513537133099659,,,,,,,,,,,,,,,,,,,,,,,,,,,,,,,,,,
,,,,,,,,,,,,,,,2023-06-26 19:12:53.265151,1,,,,,,,,,,,,,,,,,,,,,,,,,,,,,,,,,,,41.98073561166667,-91.79069488166667,255.747,0.9,RTK fixed,13,"$GPGGA,115739.00,4158.8441367,N,09147.4416929,W,4,13,0.9,255.747,M,-32.00,M,01,0000*6E
",,,,,,,,,,,,,,,,,,,,,,,,,,,
,,,,,,,,,,,,,,,2023-06-26 19:12:53.320597,1,,,,,,,,,,,,,,,,,,,,,,,,,,,,,,,,,,,41.98073561166667,-91.79069488166667,255.747,0.9,RTK fixed,13,"$GPGGA,115739.00,4158.8441367,N,09147.4416929,W,4,13,0.9,255.747,M,-32.00,M,01,0000*6E
",,,,,,,,,,,,,,,,,,,,,,,,,,,
0,433 MHz Radio,-52 db,3,Good,0,0,615814,KM6GNL,,,,,,,2023-06-26 19:12:53.323504,1,,,,,,6,0.0,0.0,0.0,-0.0,-0.0,-0.0,88.5,0.0,0.0,90.0,0.0,0.0,0.0,"[1.0, 0.0, 0.0, 0.0]","[0.0, 0.0, 0.0]",,,,,,,,,,,,,,,,,,,,,,,,,,,,,,,,,,,,,,,,,,,,,,,
0,433 MHz Radio,-53 db,3,Good,0,0,615814,KM6GNL,,,,,,,2023-06-26 19:12:53.336808,1,,,,,,6,,,,,,,,,,,,,,,,23.850000381469727,-1945668.625,-6183.81884765625,34.12736409505208,-118.20836588541667,212.1999969482422,0.0,0.0,0.0,2023-06-26 19:12:48,12,0,0.4513537133099659,,,,,,,,,,,,,,,,,,,,,,,,,,,,,,,,,,
0,433 MHz Radio,-52 db,4,Good,0,0,615814,KM6GNL,,,,,,,2023-06-26 19:12:53.374379,1,,,,,,,,,,,,,,,,,,,,,,,,,,,,,,,,,,,,,,,,,,"[False, False, False, False, False, False]","[False, False, False, False, False, False, False, False, False, False, False, False, False, False, False, False]",5,,,,,,,,,,,,,,,,,,,,,,,,
0,433 MHz Radio,-50 db,0,Bad,0,0,615814,KM6GNL,,,,,,,2023-06-26 19:12:53.485784,1,,,,,,,,,,,,,,,,,,,,,,,,,,,,,,,,,,,,,,,,,,,,,0,0,0,0,0.0,0.0,0.0,0.0,0.0,0,0,0,0,,,,,,,,,,,
0,433 MHz Radio,-53 db,3,Good,0,0,616011,KM6GNL,,,,,,,2023-06-26 19:12:53.528779,1,,,,,,6,0.0,0.0,0.0,-0.0,-0.0,-0.0,88.5,0.0,0.0,90.0,0.0,0.0,0.0,"[1.0, 0.0, 0.0, 0.0]","[0.0, 0.0, 0.0]",,,,,,,,,,,,,,,,,,,,,,,,,,,,,,,,,,,,,,,,,,,,,,,
0,433 MHz Radio,-53 db,3,Good,0,0,616011,KM6GNL,,,,,,,2023-06-26 19:12:53.579696,1,,,,,,6,,,,,,,,,,,,,,,,23.8700008392334,-1946874.625,-6185.73193359375,34.12736409505208,-118.20836588541667,212.1999969482422,0.0,0.0,0.0,2023-06-26 19:12:53,12,0,0.4513537133099659,,,,,,,,,,,,,,,,,,,,,,,,,,,,,,,,,,
,,,,,,,,,,,,,,,2023-06-26 19:12:53.583677,1,,,,,,,,,,,,,,,,,,,,,,,,,,,,,,,,,,,41.98073561166667,-91.79069488166667,255.747,0.9,RTK fixed,13,"$GPGGA,115739.00,4158.8441367,N,09147.4416929,W,4,13,0.9,255.747,M,-32.00,M,01,0000*6E
",,,,,,,,,,,,,,,,,,,,,,,,,,,
,,,,,,,,,,,,,,,2023-06-26 19:12:53.663554,1,,,,,,,,,,,,,,,,,,,,,,,,,,,,,,,,,,,41.98073561166667,-91.79069488166667,255.747,0.9,RTK fixed,13,"$GPGGA,115739.00,4158.8441367,N,09147.4416929,W,4,13,0.9,255.747,M,-32.00,M,01,0000*6E
",,,,,,,,,,,,,,,,,,,,,,,,,,,
0,433 MHz Radio,-53 db,4,Good,0,0,616206,KM6GNL,,,,,,,2023-06-26 19:12:53.705203,1,,,,,,6,0.0,0.0,0.0,-0.0,-0.0,-0.0,88.5,0.0,0.0,90.0,0.0,0.0,0.0,"[1.0, 0.0, 0.0, 0.0]","[0.0, 0.0, 0.0]",,,,,,,,,,,,,,,,,,,,,,,,,,,,,,,,,,,,,,,,,,,,,,,
0,433 MHz Radio,-53 db,3,Good,0,0,616206,KM6GNL,,,,,,,2023-06-26 19:12:53.739598,1,,,,,,6,,,,,,,,,,,,,,,,23.889999389648438,-1948081.0,-6187.64501953125,34.12736409505208,-118.20836588541667,212.1999969482422,0.0,0.0,0.0,2023-06-26 19:12:53,12,0,0.4513537133099659,,,,,,,,,,,,,,,,,,,,,,,,,,,,,,,,,,
0,433 MHz Radio,-53 db,3,Good,0,0,616206,KM6GNL,0.9159634709358215,0.9164766669273376,0.9735948443412781,0.0,14.850000381469727,212.1999969482422,2023-06-26 19:12:53.888076,1,,,,,,,,,,,,,,,,,,,,,,,,,,,,,,,,,,,,,,,,,,,,,,,,,,,,,,,,,,,,,,,,,,,,
0,433 MHz Radio,-53 db,4,Good,0,0,616403,KM6GNL,,,,,,,2023-06-26 19:12:53.904671,1,,,,,,6,0.0,0.0,0.0,-0.0,-0.0,-0.0,88.5,0.0,0.0,90.0,0.0,0.0,0.0,"[1.0, 0.0, 0.0, 0.0]","[0.0, 0.0, 0.0]",,,,,,,,,,,,,,,,,,,,,,,,,,,,,,,,,,,,,,,,,,,,,,,
0,433 MHz Radio,-53 db,3,Good,0,0,616403,KM6GNL,,,,,,,2023-06-26 19:12:53.920601,1,,,,,,6,,,,,,,,,,,,,,,,23.90999984741211,-1949287.75,-6189.5576171875,34.12736409505208,-118.20836588541667,212.1999969482422,0.0,0.0,0.0,2023-06-26 19:12:53,12,0,0.4513537133099659,,,,,,,,,,,,,,,,,,,,,,,,,,,,,,,,,,
,,,,,,,,,,,,,,,2023-06-26 19:12:53.922438,1,,,,,,,,,,,,,,,,,,,,,,,,,,,,,,,,,,,41.98073561166667,-91.79069488166667,255.747,0.9,RTK fixed,13,"$GPGGA,115739.00,4158.8441367,N,09147.4416929,W,4,13,0.9,255.747,M,-32.00,M,01,0000*6E
",,,,,,,,,,,,,,,,,,,,,,,,,,,
,,,,,,,,,,,,,,,2023-06-26 19:12:54.072339,1,,,,,,,,,,,,,,,,,,,,,,,,,,,,,,,,,,,41.98073561166667,-91.79069488166667,255.747,0.9,RTK fixed,13,"$GPGGA,115739.00,4158.8441367,N,09147.4416929,W,4,13,0.9,255.747,M,-32.00,M,01,0000*6E
",,,,,,,,,,,,,,,,,,,,,,,,,,,
0,433 MHz Radio,-53 db,3,Good,0,0,616600,KM6GNL,,,,,,,2023-06-26 19:12:54.088964,1,,,,,,6,0.0,0.0,0.0,-0.0,-0.0,-0.0,88.5,0.0,0.0,90.0,0.0,0.0,0.0,"[1.0, 0.0, 0.0, 0.0]","[0.0, 0.0, 0.0]",,,,,,,,,,,,,,,,,,,,,,,,,,,,,,,,,,,,,,,,,,,,,,,
0,433 MHz Radio,-53 db,2,Good,0,0,616600,KM6GNL,,,,,,,2023-06-26 19:12:54.247921,1,,,,,,6,,,,,,,,,,,,,,,,23.93000030517578,-1950495.0,-6191.470703125,34.12736409505208,-118.20836588541667,212.1999969482422,0.0,0.0,0.0,2023-06-26 19:12:53,12,0,0.4513537133099659,,,,,,,,,,,,,,,,,,,,,,,,,,,,,,,,,,
,,,,,,,,,,,,,,,2023-06-26 19:12:54.250565,1,,,,,,,,,,,,,,,,,,,,,,,,,,,,,,,,,,,41.98073561166667,-91.79069488166667,255.747,0.9,RTK fixed,13,"$GPGGA,115739.00,4158.8441367,N,09147.4416929,W,4,13,0.9,255.747,M,-32.00,M,01,0000*6E
",,,,,,,,,,,,,,,,,,,,,,,,,,,
,,,,,,,,,,,,,,,2023-06-26 19:12:54.291786,1,,,,,,,,,,,,,,,,,,,,,,,,,,,,,,,,,,,41.98073561166667,-91.79069488166667,255.747,0.9,RTK fixed,13,"$GPGGA,115739.00,4158.8441367,N,09147.4416929,W,4,13,0.9,255.747,M,-32.00,M,01,0000*6E
",,,,,,,,,,,,,,,,,,,,,,,,,,,
0,433 MHz Radio,-52 db,3,Good,0,0,616812,KM6GNL,,,,,,,2023-06-26 19:12:54.329103,1,,,,,,6,0.0,0.0,0.0,-0.0,-0.0,-0.0,88.5,0.0,0.0,90.0,0.0,0.0,0.0,"[1.0, 0.0, 0.0, 0.0]","[0.0, 0.0, 0.0]",,,,,,,,,,,,,,,,,,,,,,,,,,,,,,,,,,,,,,,,,,,,,,,
0,433 MHz Radio,-52 db,3,Good,0,0,616812,KM6GNL,,,,,,,2023-06-26 19:12:54.344060,1,,,,,,6,,,,,,,,,,,,,,,,23.950000762939453,-1951795.375,-6193.53076171875,34.12736409505208,-118.20836588541667,212.1999969482422,0.0,0.0,0.0,2023-06-26 19:12:53,12,0,0.4513537133099659,,,,,,,,,,,,,,,,,,,,,,,,,,,,,,,,,,
0,433 MHz Radio,-51 db,3,Good,0,0,616827,KM6GNL,,,,,,,2023-06-26 19:12:54.377479,1,,,,,,,,,,,,,,,,,,,,,,,,,,,,,,,,,,,,,,,,,,"[False, False, False, False, False, False]","[False, False, False, False, False, False, False, False, False, False, False, False, False, False, False, False]",5,,,,,,,,,,,,,,,,,,,,,,,,
0,433 MHz Radio,-51 db,3,Good,0,0,616827,KM6GNL,,,,,,,2023-06-26 19:12:54.419507,1,,,,,,,,,,,,,,,,,,,,,,,,,,,,,,,,,,,,,,,,,,,,,0,0,0,0,0.0,0.0,0.0,0.0,0.0,0,0,0,0,,,,,,,,,,,
0,433 MHz Radio,-51 db,3,Good,0,0,616827,KM6GNL,,,,,,,2023-06-26 19:12:54.421507,1,,,,,,,,,,,,,,,,,,,,,,,,,,,,,,,,,,,,,,,,,,,,,0,0,0,0,0.0,0.0,0.0,0.0,0.0,0,0,0,0,,,,,,,,,,,
,,,,,,,,,,,,,,,2023-06-26 19:12:54.494766,1,0.0,0.0,0.0,0.9746262028127313,26.54,,,,,,,,,,,,,,,,,,,,,,,,,,,,,,,,,,,,,,,,,,,,,,,,,,,,,,,,,,,,,,,
0,433 MHz Radio,-51 db,3,Good,0,0,617009,KM6GNL,,,,,,,2023-06-26 19:12:54.526863,1,,,,,,6,0.0,0.0,0.0,-0.0,-0.0,-0.0,88.5,0.0,0.0,90.0,0.0,0.0,0.0,"[1.0, 0.0, 0.0, 0.0]","[0.0, 0.0, 0.0]",,,,,,,,,,,,,,,,,,,,,,,,,,,,,,,,,,,,,,,,,,,,,,,
0,433 MHz Radio,-51 db,3,Good,0,0,617009,KM6GNL,,,,,,,2023-06-26 19:12:54.601104,1,,,,,,6,,,,,,,,,,,,,,,,23.979999542236328,-1953003.25,-6195.44384765625,34.12736409505208,-118.20836588541667,212.1999969482422,0.0,0.0,0.0,2023-06-26 19:12:53,12,0,0.4513537133099659,,,,,,,,,,,,,,,,,,,,,,,,,,,,,,,,,,
,,,,,,,,,,,,,,,2023-06-26 19:12:54.609402,1,,,,,,,,,,,,,,,,,,,,,,,,,,,,,,,,,,,41.98073561166667,-91.79069488166667,255.747,0.9,RTK fixed,13,"$GPGGA,115739.00,4158.8441367,N,09147.4416929,W,4,13,0.9,255.747,M,-32.00,M,01,0000*6E
",,,,,,,,,,,,,,,,,,,,,,,,,,,
,,,,,,,,,,,,,,,2023-06-26 19:12:54.693533,1,,,,,,,,,,,,,,,,,,,,,,,,,,,,,,,,,,,41.98073561166667,-91.79069488166667,255.747,0.9,RTK fixed,13,"$GPGGA,115739.00,4158.8441367,N,09147.4416929,W,4,13,0.9,255.747,M,-32.00,M,01,0000*6E
",,,,,,,,,,,,,,,,,,,,,,,,,,,
0,433 MHz Radio,-51 db,4,Good,0,0,617208,KM6GNL,,,,,,,2023-06-26 19:12:54.697964,1,,,,,,6,0.0,0.0,0.0,-0.0,-0.0,-0.0,88.5,0.0,0.0,90.0,0.0,0.0,0.0,"[1.0, 0.0, 0.0, 0.0]","[0.0, 0.0, 0.0]",,,,,,,,,,,,,,,,,,,,,,,,,,,,,,,,,,,,,,,,,,,,,,,
0,433 MHz Radio,-52 db,3,Good,0,0,617208,KM6GNL,,,,,,,2023-06-26 19:12:54.862950,1,,,,,,6,,,,,,,,,,,,,,,,24.030000686645508,-1954211.5,-6197.35693359375,34.12736409505208,-118.20836588541667,212.1999969482422,0.0,0.0,0.0,2023-06-26 19:12:53,12,0,0.4513537133099659,,,,,,,,,,,,,,,,,,,,,,,,,,,,,,,,,,
0,433 MHz Radio,-53 db,4,Good,0,0,617403,KM6GNL,,,,,,,2023-06-26 19:12:54.921204,1,,,,,,6,0.0,0.0,0.0,-0.0,-0.0,-0.0,88.5,0.0,0.0,90.0,0.0,0.0,0.0,"[1.0, 0.0, 0.0, 0.0]","[0.0, 0.0, 0.0]",,,,,,,,,,,,,,,,,,,,,,,,,,,,,,,,,,,,,,,,,,,,,,,
0,433 MHz Radio,-53 db,2,Good,0,0,617403,KM6GNL,,,,,,,2023-06-26 19:12:54.950858,1,,,,,,6,,,,,,,,,,,,,,,,24.09000015258789,-1955420.25,-6199.26953125,34.12736409505208,-118.20836588541667,212.1999969482422,0.0,0.0,0.0,2023-06-26 19:12:53,12,0,0.4513537133099659,,,,,,,,,,,,,,,,,,,,,,,,,,,,,,,,,,
,,,,,,,,,,,,,,,2023-06-26 19:12:54.952790,1,,,,,,,,,,,,,,,,,,,,,,,,,,,,,,,,,,,41.98073561166667,-91.79069488166667,255.747,0.9,RTK fixed,13,"$GPGGA,115739.00,4158.8441367,N,09147.4416929,W,4,13,0.9,255.747,M,-32.00,M,01,0000*6E
",,,,,,,,,,,,,,,,,,,,,,,,,,,
,,,,,,,,,,,,,,,2023-06-26 19:12:54.953943,1,,,,,,,,,,,,,,,,,,,,,,,,,,,,,,,,,,,41.98073561166667,-91.79069488166667,255.747,0.9,RTK fixed,13,"$GPGGA,115739.00,4158.8441367,N,09147.4416929,W,4,13,0.9,255.747,M,-32.00,M,01,0000*6E
",,,,,,,,,,,,,,,,,,,,,,,,,,,
0,433 MHz Radio,-53 db,2,Good,0,0,617420,KM6GNL,0.9134665727615356,0.9147890210151672,0.9735948443412781,0.0,14.850000381469727,212.1999969482422,2023-06-26 19:12:55.087284,1,,,,,,,,,,,,,,,,,,,,,,,,,,,,,,,,,,,,,,,,,,,,,,,,,,,,,,,,,,,,,,,,,,,,
0,433 MHz Radio,1 db,51,Bad,0,0,617600,KM6GNL,,,,,,,2023-06-26 19:12:55.270978,1,,,,,,51,,,,,,,,,,,,,,,,24.1200008392334,-1956629.25,-6201.1826171875,34.12736409505208,-118.20836588541667,4.17232506322307e-08,4.17232506322307e-08,2.146427594824729e-08,4.17232506322307e-08,1997-03-21 17:17:39,51,51,0.4513537133099659,,,,,,,,,,,,,,,,,,,,,,,,,,,,,,,,,,
0,433 MHz Radio,34 db,84,Bad,0,0,1414812756,TTTTTTT,,,,,,,2023-06-26 19:12:55.292033,1,,,,,,84,,,,,,,,,,,,,,,,3647791431680.0,3647791431680.0,3647791431680.0,36477914317.333336,36477914317.333336,3647791431680.0,3647791431680.0,1876584415279.186,3647791431680.0,2014-10-31 20:32:36,84,84,5591968.839871018,,,,,,,,,,,,,,,,,,,,,,,,,,,,,,,,,,
,,,,,,,,,,,,,,,2023-06-26 19:12:55.293665,1,,,,,,,,,,,,,,,,,,,,,,,,,,,,,,,,,,,41.98073561166667,-91.79069488166667,255.747,0.9,RTK fixed,13,"$GPGGA,115739.00,4158.8441367,N,09147.4416929,W,4,13,0.9,255.747,M,-32.00,M,01,0000*6E
",,,,,,,,,,,,,,,,,,,,,,,,,,,
,,,,,,,,,,,,,,,2023-06-26 19:12:55.296119,1,,,,,,,,,,,,,,,,,,,,,,,,,,,,,,,,,,,41.98073561166667,-91.79069488166667,255.747,0.9,RTK fixed,13,"$GPGGA,115739.00,4158.8441367,N,09147.4416929,W,4,13,0.9,255.747,M,-32.00,M,01,0000*6E
",,,,,,,,,,,,,,,,,,,,,,,,,,,
,,,,,,,,,,,,,,,2023-06-26 19:12:55.297615,1,,,,,,,,,,,,,,,,,,,,,,,,,,,,,,,,,,,41.98073561166667,-91.79069488166667,255.747,0.9,RTK fixed,13,"$GPGGA,115739.00,4158.8441367,N,09147.4416929,W,4,13,0.9,255.747,M,-32.00,M,01,0000*6E
",,,,,,,,,,,,,,,,,,,,,,,,,,,
,,,,,,,,,,,,,,,2023-06-26 19:12:55.311274,1,,,,,,,,,,,,,,,,,,,,,,,,,,,,,,,,,,,41.98073561166667,-91.79069488166667,255.747,0.9,RTK fixed,13,"$GPGGA,115739.00,4158.8441367,N,09147.4416929,W,4,13,0.9,255.747,M,-32.00,M,01,0000*6E
",,,,,,,,,,,,,,,,,,,,,,,,,,,
0,433 MHz Radio,-53 db,4,Good,0,0,617827,KM6GNL,,,,,,,2023-06-26 19:12:55.378375,1,,,,,,,,,,,,,,,,,,,,,,,,,,,,,,,,,,,,,,,,,,"[False, False, False, False, False, False]","[False, False, False, False, False, False, False, False, False, False, False, False, False, False, False, False]",5,,,,,,,,,,,,,,,,,,,,,,,,
0,433 MHz Radio,-53 db,3,Good,0,0,617827,KM6GNL,,,,,,,2023-06-26 19:12:55.390178,1,,,,,,,,,,,,,,,,,,,,,,,,,,,,,,,,,,,,,,,,,,,,,0,0,0,0,0.0,0.0,0.0,0.0,0.0,0,0,0,0,,,,,,,,,,,
0,433 MHz Radio,-53 db,3,Good,0,0,617827,KM6GNL,,,,,,,2023-06-26 19:12:55.470724,1,,,,,,,,,,,,,,,,,,,,,,,,,,,,,,,,,,,,,,,,,,,,,0,0,0,0,0.0,0.0,0.0,0.0,0.0,0,0,0,0,,,,,,,,,,,
0,433 MHz Radio,-53 db,3,Good,0,0,618009,KM6GNL,,,,,,,2023-06-26 19:12:55.508064,1,,,,,,6,0.0,0.0,0.0,-0.0,-0.0,-0.0,88.5,0.0,0.0,90.0,0.0,0.0,0.0,"[1.0, 0.0, 0.0, 0.0]","[0.0, 0.0, 0.0]",,,,,,,,,,,,,,,,,,,,,,,,,,,,,,,,,,,,,,,,,,,,,,,
0,433 MHz Radio,-53 db,3,Good,0,0,618009,KM6GNL,,,,,,,2023-06-26 19:12:55.618578,1,,,,,,6,,,,,,,,,,,,,,,,24.200000762939453,-1959141.5,-6205.15576171875,34.12736409505208,-118.20836588541667,212.10000610351562,0.0,0.0,0.0,2023-06-26 19:12:53,12,0,0.4513537133099659,,,,,,,,,,,,,,,,,,,,,,,,,,,,,,,,,,
,,,,,,,,,,,,,,,2023-06-26 19:12:55.623817,1,,,,,,,,,,,,,,,,,,,,,,,,,,,,,,,,,,,41.98073561166667,-91.79069488166667,255.747,0.9,RTK fixed,13,"$GPGGA,115739.00,4158.8441367,N,09147.4416929,W,4,13,0.9,255.747,M,-32.00,M,01,0000*6E
",,,,,,,,,,,,,,,,,,,,,,,,,,,
,,,,,,,,,,,,,,,2023-06-26 19:12:55.662567,1,,,,,,,,,,,,,,,,,,,,,,,,,,,,,,,,,,,41.98073561166667,-91.79069488166667,255.747,0.9,RTK fixed,13,"$GPGGA,115739.00,4158.8441367,N,09147.4416929,W,4,13,0.9,255.747,M,-32.00,M,01,0000*6E
",,,,,,,,,,,,,,,,,,,,,,,,,,,
0,433 MHz Radio,-53 db,3,Good,0,0,618206,KM6GNL,,,,,,,2023-06-26 19:12:55.692843,1,,,,,,6,0.0,0.0,0.0,-0.0,-0.0,-0.0,88.5,0.0,0.0,90.0,0.0,0.0,0.0,"[1.0, 0.0, 0.0, 0.0]","[0.0, 0.0, 0.0]",,,,,,,,,,,,,,,,,,,,,,,,,,,,,,,,,,,,,,,,,,,,,,,
0,433 MHz Radio,-53 db,3,Good,0,0,618206,KM6GNL,,,,,,,2023-06-26 19:12:55.864231,1,,,,,,6,,,,,,,,,,,,,,,,24.219999313354492,-1960351.625,-6207.06884765625,34.12736409505208,-118.20836588541667,212.10000610351562,0.0,0.0,0.0,2023-06-26 19:12:53,12,0,0.4513537133099659,,,,,,,,,,,,,,,,,,,,,,,,,,,,,,,,,,
0,433 MHz Radio,-53 db,3,Good,0,0,618403,KM6GNL,,,,,,,2023-06-26 19:12:55.893581,1,,,,,,6,0.0,0.0,0.0,-0.0,-0.0,-0.0,88.5,0.0,0.0,90.0,0.0,0.0,0.0,"[1.0, 0.0, 0.0, 0.0]","[0.0, 0.0, 0.0]",,,,,,,,,,,,,,,,,,,,,,,,,,,,,,,,,,,,,,,,,,,,,,,
0,433 MHz Radio,-53 db,3,Good,0,0,618403,KM6GNL,,,,,,,2023-06-26 19:12:55.935706,1,,,,,,6,,,,,,,,,,,,,,,,24.25,-1961562.25,-6208.9814453125,34.12736409505208,-118.20836588541667,212.10000610351562,0.0,0.0,0.0,2023-06-26 19:12:53,12,0,0.4513537133099659,,,,,,,,,,,,,,,,,,,,,,,,,,,,,,,,,,
,,,,,,,,,,,,,,,2023-06-26 19:12:55.953329,1,,,,,,,,,,,,,,,,,,,,,,,,,,,,,,,,,,,41.98073561166667,-91.79069488166667,255.747,0.9,RTK fixed,13,"$GPGGA,115739.00,4158.8441367,N,09147.4416929,W,4,13,0.9,255.747,M,-32.00,M,01,0000*6E
",,,,,,,,,,,,,,,,,,,,,,,,,,,
,,,,,,,,,,,,,,,2023-06-26 19:12:56.065143,1,,,,,,,,,,,,,,,,,,,,,,,,,,,,,,,,,,,41.98073561166667,-91.79069488166667,255.747,0.9,RTK fixed,13,"$GPGGA,115739.00,4158.8441367,N,09147.4416929,W,4,13,0.9,255.747,M,-32.00,M,01,0000*6E
",,,,,,,,,,,,,,,,,,,,,,,,,,,
0,433 MHz Radio,-52 db,3,Good,0,0,618600,KM6GNL,,,,,,,2023-06-26 19:12:56.103654,1,,,,,,6,0.0,0.0,0.0,-0.0,-0.0,-0.0,88.5,0.0,0.0,90.0,0.0,0.0,0.0,"[1.0, 0.0, 0.0, 0.0]","[0.0, 0.0, 0.0]",,,,,,,,,,,,,,,,,,,,,,,,,,,,,,,,,,,,,,,,,,,,,,,
0,433 MHz Radio,-53 db,3,Good,0,0,618600,KM6GNL,,,,,,,2023-06-26 19:12:56.144992,1,,,,,,6,,,,,,,,,,,,,,,,24.239999771118164,-1962773.125,-6210.89453125,34.12736409505208,-118.20836588541667,212.10000610351562,0.0,0.0,0.0,2023-06-26 19:12:53,12,0,0.4513537133099659,,,,,,,,,,,,,,,,,,,,,,,,,,,,,,,,,,
0,433 MHz Radio,-53 db,3,Good,0,0,618645,KM6GNL,0.9167529940605164,0.9176017642021179,0.9735948443412781,0.0,14.850000381469727,212.10000610351562,2023-06-26 19:12:56.272441,1,,,,,,,,,,,,,,,,,,,,,,,,,,,,,,,,,,,,,,,,,,,,,,,,,,,,,,,,,,,,,,,,,,,,
,,,,,,,,,,,,,,,2023-06-26 19:12:56.273153,1,,,,,,,,,,,,,,,,,,,,,,,,,,,,,,,,,,,41.98073561166667,-91.79069488166667,255.747,0.9,RTK fixed,13,"$GPGGA,115739.00,4158.8441367,N,09147.4416929,W,4,13,0.9,255.747,M,-32.00,M,01,0000*6E
",,,,,,,,,,,,,,,,,,,,,,,,,,,
,,,,,,,,,,,,,,,2023-06-26 19:12:56.284602,1,,,,,,,,,,,,,,,,,,,,,,,,,,,,,,,,,,,41.98073561166667,-91.79069488166667,255.747,0.9,RTK fixed,13,"$GPGGA,115739.00,4158.8441367,N,09147.4416929,W,4,13,0.9,255.747,M,-32.00,M,01,0000*6E
",,,,,,,,,,,,,,,,,,,,,,,,,,,
0,433 MHz Radio,-53 db,3,Good,0,0,618812,KM6GNL,,,,,,,2023-06-26 19:12:56.309528,1,,,,,,6,0.0,0.0,0.0,-0.0,-0.0,-0.0,88.5,0.0,0.0,90.0,0.0,0.0,0.0,"[1.0, 0.0, 0.0, 0.0]","[0.0, 0.0, 0.0]",,,,,,,,,,,,,,,,,,,,,,,,,,,,,,,,,,,,,,,,,,,,,,,
0,433 MHz Radio,-53 db,3,Good,0,0,618812,KM6GNL,,,,,,,2023-06-26 19:12:56.359481,1,,,,,,6,,,,,,,,,,,,,,,,24.229999542236328,-1964077.625,-6212.95458984375,34.12736409505208,-118.20836588541667,212.10000610351562,0.0,0.0,0.0,2023-06-26 19:12:53,12,0,0.4513537133099659,,,,,,,,,,,,,,,,,,,,,,,,,,,,,,,,,,
0,433 MHz Radio,-53 db,3,Good,0,0,618827,KM6GNL,,,,,,,2023-06-26 19:12:56.393078,1,,,,,,,,,,,,,,,,,,,,,,,,,,,,,,,,,,,,,,,,,,"[False, False, False, False, False, False]","[False, False, False, False, False, False, False, False, False, False, False, False, False, False, False, False]",5,,,,,,,,,,,,,,,,,,,,,,,,
0,433 MHz Radio,-53 db,3,Good,0,0,618827,KM6GNL,,,,,,,2023-06-26 19:12:56.394852,1,,,,,,,,,,,,,,,,,,,,,,,,,,,,,,,,,,,,,,,,,,,,,0,0,0,0,0.0,0.0,0.0,0.0,0.0,0,0,0,0,,,,,,,,,,,
0,433 MHz Radio,-52 db,4,Good,0,0,618827,KM6GNL,,,,,,,2023-06-26 19:12:56.428784,1,,,,,,,,,,,,,,,,,,,,,,,,,,,,,,,,,,,,,,,,,,,,,0,0,0,0,0.0,0.0,0.0,0.0,0.0,0,0,0,0,,,,,,,,,,,
,,,,,,,,,,,,,,,2023-06-26 19:12:56.476889,1,0.0,0.0,0.0,0.9750012336540834,26.6,,,,,,,,,,,,,,,,,,,,,,,,,,,,,,,,,,,,,,,,,,,,,,,,,,,,,,,,,,,,,,,
0,433 MHz Radio,-53 db,3,Good,0,0,619009,KM6GNL,,,,,,,2023-06-26 19:12:56.494313,1,,,,,,6,0.0,0.0,0.0,-0.0,-0.0,-0.0,88.5,0.0,0.0,90.0,0.0,0.0,0.0,"[1.0, 0.0, 0.0, 0.0]","[0.0, 0.0, 0.0]",,,,,,,,,,,,,,,,,,,,,,,,,,,,,,,,,,,,,,,,,,,,,,,
0,433 MHz Radio,-53 db,4,Good,0,0,619009,KM6GNL,,,,,,,2023-06-26 19:12:56.590378,1,,,,,,6,,,,,,,,,,,,,,,,24.209999084472656,-1965289.375,-6214.86767578125,34.12736409505208,-118.20836588541667,212.10000610351562,0.0,0.0,0.0,2023-06-26 19:12:53,12,0,0.4513537133099659,,,,,,,,,,,,,,,,,,,,,,,,,,,,,,,,,,
,,,,,,,,,,,,,,,2023-06-26 19:12:56.602626,1,,,,,,,,,,,,,,,,,,,,,,,,,,,,,,,,,,,41.98073561166667,-91.79069488166667,255.747,0.9,RTK fixed,13,"$GPGGA,115739.00,4158.8441367,N,09147.4416929,W,4,13,0.9,255.747,M,-32.00,M,01,0000*6E
",,,,,,,,,,,,,,,,,,,,,,,,,,,
,,,,,,,,,,,,,,,2023-06-26 19:12:56.655209,1,,,,,,,,,,,,,,,,,,,,,,,,,,,,,,,,,,,41.98073561166667,-91.79069488166667,255.747,0.9,RTK fixed,13,"$GPGGA,115739.00,4158.8441367,N,09147.4416929,W,4,13,0.9,255.747,M,-32.00,M,01,0000*6E
",,,,,,,,,,,,,,,,,,,,,,,,,,,
0,433 MHz Radio,-53 db,3,Good,0,0,619204,KM6GNL,,,,,,,2023-06-26 19:12:56.708944,1,,,,,,6,0.0,0.0,0.0,-0.0,-0.0,-0.0,88.5,0.0,0.0,90.0,0.0,0.0,0.0,"[1.0, 0.0, 0.0, 0.0]","[0.0, 0.0, 0.0]",,,,,,,,,,,,,,,,,,,,,,,,,,,,,,,,,,,,,,,,,,,,,,,
0,433 MHz Radio,-53 db,3,Good,0,0,619204,KM6GNL,,,,,,,2023-06-26 19:12:56.868565,1,,,,,,6,,,,,,,,,,,,,,,,24.219999313354492,-1966501.375,-6216.78076171875,34.12736409505208,-118.20836588541667,212.10000610351562,0.0,0.0,0.0,2023-06-26 19:12:53,12,0,0.4513537133099659,,,,,,,,,,,,,,,,,,,,,,,,,,,,,,,,,,
0,433 MHz Radio,-53 db,3,Good,0,0,619401,KM6GNL,,,,,,,2023-06-26 19:12:56.896281,1,,,,,,6,0.0,0.0,0.0,-0.0,-0.0,-0.0,88.5,0.0,0.0,90.0,0.0,0.0,0.0,"[1.0, 0.0, 0.0, 0.0]","[0.0, 0.0, 0.0]",,,,,,,,,,,,,,,,,,,,,,,,,,,,,,,,,,,,,,,,,,,,,,,
0,433 MHz Radio,-54 db,3,Good,0,0,619401,KM6GNL,,,,,,,2023-06-26 19:12:56.910398,1,,,,,,6,,,,,,,,,,,,,,,,24.219999313354492,-1967713.875,-6218.693359375,34.12736409505208,-118.20836588541667,212.10000610351562,0.0,0.0,0.0,2023-06-26 19:12:53,12,0,0.4513537133099659,,,,,,,,,,,,,,,,,,,,,,,,,,,,,,,,,,
,,,,,,,,,,,,,,,2023-06-26 19:12:56.915195,1,,,,,,,,,,,,,,,,,,,,,,,,,,,,,,,,,,,41.98073561166667,-91.79069488166667,255.747,0.9,RTK fixed,13,"$GPGGA,115739.00,4158.8441367,N,09147.4416929,W,4,13,0.9,255.747,M,-32.00,M,01,0000*6E
",,,,,,,,,,,,,,,,,,,,,,,,,,,
,,,,,,,,,,,,,,,2023-06-26 19:12:57.075795,1,,,,,,,,,,,,,,,,,,,,,,,,,,,,,,,,,,,41.98073561166667,-91.79069488166667,255.747,0.9,RTK fixed,13,"$GPGGA,115739.00,4158.8441367,N,09147.4416929,W,4,13,0.9,255.747,M,-32.00,M,01,0000*6E
",,,,,,,,,,,,,,,,,,,,,,,,,,,
0,433 MHz Radio,-53 db,3,Good,0,0,619613,KM6GNL,,,,,,,2023-06-26 19:12:57.130890,1,,,,,,6,0.0,0.0,0.0,-0.0,-0.0,-0.0,88.5,0.0,0.0,90.0,0.0,0.0,0.0,"[1.0, 0.0, 0.0, 0.0]","[0.0, 0.0, 0.0]",,,,,,,,,,,,,,,,,,,,,,,,,,,,,,,,,,,,,,,,,,,,,,,
0,433 MHz Radio,-53 db,4,Good,0,0,619613,KM6GNL,,,,,,,2023-06-26 19:12:57.250964,1,,,,,,6,,,,,,,,,,,,,,,,24.219999313354492,-1969020.0,-6220.75341796875,34.12736409505208,-118.20836588541667,212.10000610351562,0.0,0.0,0.0,2023-06-26 19:12:53,12,0,0.4513537133099659,,,,,,,,,,,,,,,,,,,,,,,,,,,,,,,,,,
,,,,,,,,,,,,,,,2023-06-26 19:12:57.252636,1,,,,,,,,,,,,,,,,,,,,,,,,,,,,,,,,,,,41.98073561166667,-91.79069488166667,255.747,0.9,RTK fixed,13,"$GPGGA,115739.00,4158.8441367,N,09147.4416929,W,4,13,0.9,255.747,M,-32.00,M,01,0000*6E
",,,,,,,,,,,,,,,,,,,,,,,,,,,
,,,,,,,,,,,,,,,2023-06-26 19:12:57.282570,1,,,,,,,,,,,,,,,,,,,,,,,,,,,,,,,,,,,41.98073561166667,-91.79069488166667,255.747,0.9,RTK fixed,13,"$GPGGA,115739.00,4158.8441367,N,09147.4416929,W,4,13,0.9,255.747,M,-32.00,M,01,0000*6E
",,,,,,,,,,,,,,,,,,,,,,,,,,,
0,433 MHz Radio,-53 db,4,Good,0,0,619810,KM6GNL,,,,,,,2023-06-26 19:12:57.335151,1,,,,,,6,0.0,0.0,0.0,-0.0,-0.0,-0.0,88.5,0.0,0.0,90.0,0.0,0.0,0.0,"[1.0, 0.0, 0.0, 0.0]","[0.0, 0.0, 0.0]",,,,,,,,,,,,,,,,,,,,,,,,,,,,,,,,,,,,,,,,,,,,,,,
0,433 MHz Radio,-53 db,3,Good,0,0,619810,KM6GNL,,,,,,,2023-06-26 19:12:57.348579,1,,,,,,6,,,,,,,,,,,,,,,,24.270000457763672,-1970233.25,-6222.66650390625,34.12736409505208,-118.20836588541667,212.0,0.0,0.0,0.0,2023-06-26 19:12:53,12,0,0.4513537133099659,,,,,,,,,,,,,,,,,,,,,,,,,,,,,,,,,,
0,433 MHz Radio,-53 db,3,Good,0,0,619840,KM6GNL,,,,,,,2023-06-26 19:12:57.420354,1,,,,,,,,,,,,,,,,,,,,,,,,,,,,,,,,,,,,,,,,,,"[False, False, False, False, False, False]","[False, False, False, False, False, False, False, False, False, False, False, False, False, False, False, False]",5,,,,,,,,,,,,,,,,,,,,,,,,
0,433 MHz Radio,-53 db,3,Good,0,0,619840,KM6GNL,,,,,,,2023-06-26 19:12:57.421290,1,,,,,,,,,,,,,,,,,,,,,,,,,,,,,,,,,,,,,,,,,,,,,0,0,0,0,0.0,0.0,0.0,0.0,0.0,0,0,0,0,,,,,,,,,,,
0,433 MHz Radio,13 db,63,Bad,0,0,619870,KM6GNL,0.9318726658821106,0.7470588088035583,0.7470588088035583,0.7470588088035583,0.7470588088035583,0.7470588088035583,2023-06-26 19:12:57.473894,1,,,,,,,,,,,,,,,,,,,,,,,,,,,,,,,,,,,,,,,,,,,,,,,,,,,,,,,,,,,,,,,,,,,,
0,433 MHz Radio,-53 db,3,Good,0,0,620007,KM6GNL,,,,,,,2023-06-26 19:12:57.505858,1,,,,,,6,0.0,0.0,0.0,-0.0,-0.0,-0.0,88.5,0.0,0.0,90.0,0.0,0.0,0.0,"[1.0, 0.0, 0.0, 0.0]","[0.0, 0.0, 0.0]",,,,,,,,,,,,,,,,,,,,,,,,,,,,,,,,,,,,,,,,,,,,,,,
0,433 MHz Radio,-54 db,3,Good,0,0,620007,KM6GNL,,,,,,,2023-06-26 19:12:57.653706,1,,,,,,6,,,,,,,,,,,,,,,,24.219999313354492,-1971446.75,-6224.57958984375,34.12736409505208,-118.20836588541667,212.0,0.0,0.0,0.0,2023-06-26 19:12:53,12,0,0.4513537133099659,,,,,,,,,,,,,,,,,,,,,,,,,,,,,,,,,,
,,,,,,,,,,,,,,,2023-06-26 19:12:57.660889,1,,,,,,,,,,,,,,,,,,,,,,,,,,,,,,,,,,,41.98073561166667,-91.79069488166667,255.747,0.9,RTK fixed,13,"$GPGGA,115739.00,4158.8441367,N,09147.4416929,W,4,13,0.9,255.747,M,-32.00,M,01,0000*6E
",,,,,,,,,,,,,,,,,,,,,,,,,,,
,,,,,,,,,,,,,,,2023-06-26 19:12:57.681678,1,,,,,,,,,,,,,,,,,,,,,,,,,,,,,,,,,,,41.98073561166667,-91.79069488166667,255.747,0.9,RTK fixed,13,"$GPGGA,115739.00,4158.8441367,N,09147.4416929,W,4,13,0.9,255.747,M,-32.00,M,01,0000*6E
",,,,,,,,,,,,,,,,,,,,,,,,,,,
0,433 MHz Radio,-54 db,3,Good,0,0,620204,KM6GNL,,,,,,,2023-06-26 19:12:57.720130,1,,,,,,6,0.0,0.0,0.0,-0.0,-0.0,-0.0,88.5,0.0,0.0,90.0,0.0,0.0,0.0,"[1.0, 0.0, 0.0, 0.0]","[0.0, 0.0, 0.0]",,,,,,,,,,,,,,,,,,,,,,,,,,,,,,,,,,,,,,,,,,,,,,,
0,433 MHz Radio,-54 db,3,Good,0,0,620204,KM6GNL,,,,,,,2023-06-26 19:12:57.876028,1,,,,,,6,,,,,,,,,,,,,,,,24.25,-1972660.75,-6226.49267578125,34.12736409505208,-118.20836588541667,212.0,0.0,0.0,0.0,2023-06-26 19:12:53,12,0,0.4513537133099659,,,,,,,,,,,,,,,,,,,,,,,,,,,,,,,,,,
0,433 MHz Radio,-53 db,3,Good,0,0,620401,KM6GNL,,,,,,,2023-06-26 19:12:57.926014,1,,,,,,6,0.0,0.0,0.0,-0.0,-0.0,-0.0,88.5,0.0,0.0,90.0,0.0,0.0,0.0,"[1.0, 0.0, 0.0, 0.0]","[0.0, 0.0, 0.0]",,,,,,,,,,,,,,,,,,,,,,,,,,,,,,,,,,,,,,,,,,,,,,,
0,433 MHz Radio,-53 db,3,Good,0,0,620401,KM6GNL,,,,,,,2023-06-26 19:12:57.931606,1,,,,,,6,,,,,,,,,,,,,,,,24.25,-1973875.125,-6228.4052734375,34.12736409505208,-118.20836588541667,212.0,0.0,0.0,0.0,2023-06-26 19:12:53,12,0,0.4513537133099659,,,,,,,,,,,,,,,,,,,,,,,,,,,,,,,,,,
