Latitude,Longitude,GPS Alt,Hdop,Fix Quality,Satellites,gps_string,timestamp,run_number,gs_lat,gs_lon,gs_alt,gs_baro,gs_temp,radio_id,radio_name,rssi,lqi,crc,software_version,board_serial_number,time_stamp_ms,callsign,temperature,fcb_altitude,v_speed,fcb_latitude,fcb_longitude,gps_alt,fcb_battery_voltage,ground_speed,course_over_ground,gps_time,gps_sats,fcb_state_number,ble_client,distance,pyro_continuity,pyro_status,flash_usage,line_cutter_number,line_cutter_0_state,line_cutter_0_time_stamp_ms,line_cutter_0_barometer_pressure,line_cutter_0_fcb_altitude,line_cutter_0_delta_alt,line_cutter_0_temperature,line_cutter_0_accel_z,line_cutter_0_battery_voltage,line_cutter_0_cut_1,line_cutter_0_cut_2,line_cutter_0_current_sense,line_cutter_0_photoresistor,rot_vel_x,rot_vel_y,rot_vel_z,accel_x,accel_y,accel_z,magnetic_field_x,magnetic_field_y,magnetic_field_z,angle_vertical,roll,pitch,yaw,orientation_quaternion,orientation_rpy,barometer_pressure,barometer_2_pressure,press_ref,ground_elev,ground_temp,pitot_ducer_press,line_cutter_4_limitVel,line_cutter_4_altitude1,line_cutter_4_altitude2,line_cutter_4_disreefDelay1,line_cutter_4_disreefDelay2,line_cutter_4_pwmVoltage1,line_cutter_4_pwmVoltage2,line_cutter_4_pwmDuration,line_cutter_4_lightThreshold,line_cutter_4_lightTriggerTime,line_cutter_4_seaLevelPressure,line_cutter_0_limitVel,line_cutter_0_altitude1,line_cutter_0_altitude2,line_cutter_0_disreefDelay1,line_cutter_0_disreefDelay2,line_cutter_0_pwmVoltage1,line_cutter_0_pwmVoltage2,line_cutter_0_pwmDuration,line_cutter_0_lightThreshold,line_cutter_0_lightTriggerTime,line_cutter_0_seaLevelPressure,line_cutter_1_state,line_cutter_1_time_stamp_ms,line_cutter_1_barometer_pressure,line_cutter_1_fcb_altitude,line_cutter_1_delta_alt,line_cutter_1_temperature,line_cutter_1_accel_z,line_cutter_1_battery_voltage,line_cutter_1_cut_1,line_cutter_1_cut_2,line_cutter_1_current_sense,line_cutter_1_photoresistor,cli_string
0,0,0,0,,0,,2023-06-26 19:06:29.960773,1,,,,,,,,,,,,,,,,,,,,,,,,,,,,,,,,,,,,,,,,,,,,,,,,,,,,,,,,,,,,,,,,,,,,,,,,,,,,,,,,,,,,,,,,,,,,,,,,,,,,
41.98073561166667,-91.79069488166667,255.747,0.9,RTK fixed,13,"$GPGGA,115739.00,4158.8441367,N,09147.4416929,W,4,13,0.9,255.747,M,-32.00,M,01,0000*6E
",2023-06-26 19:06:30.128046,1,,,,,,,,,,,,,,,,,,,,,,,,,,,,,,,,,,,,,,,,,,,,,,,,,,,,,,,,,,,,,,,,,,,,,,,,,,,,,,,,,,,,,,,,,,,,,,,,,,,,
,,,,,,,2023-06-26 19:06:30.287518,1,0.0,0.0,0.0,0.9733530717986677,23.22,,,,,,,,,,,,,,,,,,,,,,,,,,,,,,,,,,,,,,,,,,,,,,,,,,,,,,,,,,,,,,,,,,,,,,,,,,,,,,,,,,,,,,,,,,,,,,,
41.98073561166667,-91.79069488166667,255.747,0.9,RTK fixed,13,"$GPGGA,115739.00,4158.8441367,N,09147.4416929,W,4,13,0.9,255.747,M,-32.00,M,01,0000*6E
",2023-06-26 19:06:30.299075,1,,,,,,,,,,,,,,,,,,,,,,,,,,,,,,,,,,,,,,,,,,,,,,,,,,,,,,,,,,,,,,,,,,,,,,,,,,,,,,,,,,,,,,,,,,,,,,,,,,,,
41.98073561166667,-91.79069488166667,255.747,0.9,RTK fixed,13,"$GPGGA,115739.00,4158.8441367,N,09147.4416929,W,4,13,0.9,255.747,M,-32.00,M,01,0000*6E
",2023-06-26 19:06:30.622387,1,,,,,,,,,,,,,,,,,,,,,,,,,,,,,,,,,,,,,,,,,,,,,,,,,,,,,,,,,,,,,,,,,,,,,,,,,,,,,,,,,,,,,,,,,,,,,,,,,,,,
41.98073561166667,-91.79069488166667,255.747,0.9,RTK fixed,13,"$GPGGA,115739.00,4158.8441367,N,09147.4416929,W,4,13,0.9,255.747,M,-32.00,M,01,0000*6E
",2023-06-26 19:06:30.623604,1,,,,,,,,,,,,,,,,,,,,,,,,,,,,,,,,,,,,,,,,,,,,,,,,,,,,,,,,,,,,,,,,,,,,,,,,,,,,,,,,,,,,,,,,,,,,,,,,,,,,
41.98073561166667,-91.79069488166667,255.747,0.9,RTK fixed,13,"$GPGGA,115739.00,4158.8441367,N,09147.4416929,W,4,13,0.9,255.747,M,-32.00,M,01,0000*6E
",2023-06-26 19:06:30.701217,1,,,,,,,,,,,,,,,,,,,,,,,,,,,,,,,,,,,,,,,,,,,,,,,,,,,,,,,,,,,,,,,,,,,,,,,,,,,,,,,,,,,,,,,,,,,,,,,,,,,,
,,,,,,,2023-06-26 19:06:30.777226,1,,,,,,0,433 MHz Radio,-75 db,21,Bad,0,0,67341473,KÍ6GNL,25.239999771118164,-304840.0625,-2458.864013671875,34.12923990885417,-98.07449544270834,246.3000030517578,2.0,4.837808126515367e-38,0.0,2023-06-26 19:06:28,0,6,0,0.0,,,,,,,,,,,,,,,,,,,,,,,,,,,,,,,,,,,,,,,,,,,,,,,,,,,,,,,,,,,,,,,,,,,,,,,,
,,,,,,,2023-06-26 19:06:30.789751,1,,,,,,0,433 MHz Radio,-74 db,17,Bad,64,64,2328767,KM6GÎL,,,,,,,,,,,,,,,"[False, False, False, False, False, False]","[False, False, False, False, False, False, False, False, False, False, False, False, False, False, False, False]",4,,,,,,,,,,,,,,,,,,,,,,,,,,,,,,,,,,,,,,,,,,,,,,,,,,,,,,,,,,,,,,,,,,,,,
,,,,,,,2023-06-26 19:06:30.824126,1,,,,,,0,433 MHz Radio,-76 db,19,Bad,0,0,2329791,KM6GNL,,,,,,,,,,,,,,,,,,0,0,9438208,8192,2.8698592549372254e-42,4.591774807899561e-41,7.346839692639297e-42,5.048709793414476e-29,1.4349296274686127e-42,2050,0,0,0,,,,,,,,,,,,,,,,,,,,,,,,,,,,,,,,,,,,,,,,,,,,,,,,,,,,,,,,
,,,,,,,2023-06-26 19:06:30.907877,1,,,,,,0,433 MHz Radio,-73 db,17,Bad,0,0,233407,KM6GNL,,,,,,,,,,,,,,,,,,0,0,0,0,1.401298464324817e-45,-9.4039548065783e-38,0.0,5.877471754111438e-39,0.0,16384,0,0,0,,,,,,,,,,,,,,,,,,,,,,,,,,,,,,,,,,,,,,,,,,,,,,,,,,,,,,,,
,,,,,,,2023-06-26 19:06:30.949924,1,,,,,,0,433 MHz Radio,-76 db,24,Bad,0,0,233318,kI6GNL,,,,,,,,,,,,6,,,,,,,,,,,,,,,,,,,4.484155085839415e-44,3.851867235614164e-34,0.0,-4.484155085839415e-44,-2.350988701644575e-38,-0.0,88.5078125,0.0,5.891821050386124e-39,499.6,0.0,0.0,0.0,"[1.0, 0.0, 0.0, 0.0]","[0.0, 0.0, 0.0]",,,,,,,,,,,,,,,,,,,,,,,,,,,,,,,,,,,,,,,,,
,,,,,,,2023-06-26 19:06:30.951643,1,,,,,,0,433 MHz Radio,-75 db,18,Bad,0,64,101486,KM6NL,25.224374771118164,309287.59375,-2460.75927734375,34.1291748046875,-2.1790131769396413e+21,1057850458112.0,0.0,1.5118150395360522e-39,0.0,2023-06-26 19:06:28,4,6,0,6374249.233155207,,,,,,,,,,,,,,,,,,,,,,,,,,,,,,,,,,,,,,,,,,,,,,,,,,,,,,,,,,,,,,,,,,,,,,,,
41.98073561166667,-91.79069488166667,255.747,0.9,RTK fixed,13,"$GPGGA,115739.00,4158.8441367,N,09147.4416929,W,4,13,0.9,255.747,M,-32.00,M,01,0000*6E
",2023-06-26 19:06:30.954947,1,,,,,,,,,,,,,,,,,,,,,,,,,,,,,,,,,,,,,,,,,,,,,,,,,,,,,,,,,,,,,,,,,,,,,,,,,,,,,,,,,,,,,,,,,,,,,,,,,,,,
41.98073561166667,-91.79069488166667,255.747,0.9,RTK fixed,13,"$GPGGA,115739.00,4158.8441367,N,09147.4416929,W,4,13,0.9,255.747,M,-32.00,M,01,0000*6E
",2023-06-26 19:06:31.282926,1,,,,,,,,,,,,,,,,,,,,,,,,,,,,,,,,,,,,,,,,,,,,,,,,,,,,,,,,,,,,,,,,,,,,,,,,,,,,,,,,,,,,,,,,,,,,,,,,,,,,
41.98073561166667,-91.79069488166667,255.747,0.9,RTK fixed,13,"$GPGGA,115739.00,4158.8441367,N,09147.4416929,W,4,13,0.9,255.747,M,-32.00,M,01,0000*6E
",2023-06-26 19:06:31.283825,1,,,,,,,,,,,,,,,,,,,,,,,,,,,,,,,,,,,,,,,,,,,,,,,,,,,,,,,,,,,,,,,,,,,,,,,,,,,,,,,,,,,,,,,,,,,,,,,,,,,,
41.98073561166667,-91.79069488166667,255.747,0.9,RTK fixed,13,"$GPGGA,115739.00,4158.8441367,N,09147.4416929,W,4,13,0.9,255.747,M,-32.00,M,01,0000*6E
",2023-06-26 19:06:31.613719,1,,,,,,,,,,,,,,,,,,,,,,,,,,,,,,,,,,,,,,,,,,,,,,,,,,,,,,,,,,,,,,,,,,,,,,,,,,,,,,,,,,,,,,,,,,,,,,,,,,,,
41.98073561166667,-91.79069488166667,255.747,0.9,RTK fixed,13,"$GPGGA,115739.00,4158.8441367,N,09147.4416929,W,4,13,0.9,255.747,M,-32.00,M,01,0000*6E
",2023-06-26 19:06:31.614421,1,,,,,,,,,,,,,,,,,,,,,,,,,,,,,,,,,,,,,,,,,,,,,,,,,,,,,,,,,,,,,,,,,,,,,,,,,,,,,,,,,,,,,,,,,,,,,,,,,,,,
41.98073561166667,-91.79069488166667,255.747,0.9,RTK fixed,13,"$GPGGA,115739.00,4158.8441367,N,09147.4416929,W,4,13,0.9,255.747,M,-32.00,M,01,0000*6E
",2023-06-26 19:06:31.792498,1,,,,,,,,,,,,,,,,,,,,,,,,,,,,,,,,,,,,,,,,,,,,,,,,,,,,,,,,,,,,,,,,,,,,,,,,,,,,,,,,,,,,,,,,,,,,,,,,,,,,
,,,,,,,2023-06-26 19:06:31.834047,1,,,,,,0,433 MHz Radio,-76 db,20,Bad,0,0,67342503,KM6GNL,,,,,,,,,,,,,,,,,,0,0,32768,1048576,1.4693679385278594e-39,1.1020259538958945e-39,0.0,7.347288108147881e-40,-0.0,0,0,0,32,,,,,,,,,,,,,,,,,,,,,,,,,,,,,,,,,,,,,,,,,,,,,,,,,,,,,,,,
,,,,,,,2023-06-26 19:06:31.910771,1,,,,,,0,433 MHz Radio,-74 db,17,Bad,0,0,233639,KM6GNL,,,,,,,,,,,,,,,,,,0,0,0,0,0.0,0.0,0.0,0.0,0.0,2048,0,0,0,,,,,,,,,,,,,,,,,,,,,,,,,,,,,,,,,,,,,,,,,,,,,,,,,,,,,,,,
,,,,,,,2023-06-26 19:06:31.953649,1,,,,,,0,433 MHz Radio,-75 db,24,Bad,8,0,233804,KM6GNL,,,,,,,,,,,,6,,,,,,,,,,,,,,,,,,,0.0,0.0,0.0,-1.793662034335766e-43,-0.0,-0.0,88.5,0.0,0.0,90.0,0.0,0.0,0.0,"[1.0, 0.0, 0.0, 0.0]","[0.0, 0.0, 0.0]",,,,,,,,,,,,,,,,,,,,,,,,,,,,,,,,,,,,,,,,,
,,,,,,,2023-06-26 19:06:31.968381,1,,,,,,0,433 MHz Radio,-73 db,12,Bad,0,0,233804,KM6GL,25.260000228881836,-307760.625,-2470.48876953125,34.1291748046875,-118.20730794270834,246.3000030517578,0.0,0.0,0.0,2023-06-26 19:06:28,4,6,0,1828163.9113902003,,,,,,,,,,,,,,,,,,,,,,,,,,,,,,,,,,,,,,,,,,,,,,,,,,,,,,,,,,,,,,,,,,,,,,,,
41.98073561166667,-91.79069488166667,255.747,0.9,RTK fixed,13,"$GPGGA,115739.00,4158.8441367,N,09147.4416929,W,4,13,0.9,255.747,M,-32.00,M,01,0000*6E
",2023-06-26 19:06:31.969160,1,,,,,,,,,,,,,,,,,,,,,,,,,,,,,,,,,,,,,,,,,,,,,,,,,,,,,,,,,,,,,,,,,,,,,,,,,,,,,,,,,,,,,,,,,,,,,,,,,,,,
41.98073561166667,-91.79069488166667,255.747,0.9,RTK fixed,13,"$GPGGA,115739.00,4158.8441367,N,09147.4416929,W,4,13,0.9,255.747,M,-32.00,M,01,0000*6E
",2023-06-26 19:06:32.107088,1,,,,,,,,,,,,,,,,,,,,,,,,,,,,,,,,,,,,,,,,,,,,,,,,,,,,,,,,,,,,,,,,,,,,,,,,,,,,,,,,,,,,,,,,,,,,,,,,,,,,
,,,,,,,2023-06-26 19:06:32.136989,1,,,,,,0,433 MHz Radio,21 db,71,Bad,0,0,234001,KM6GGGG,51015.27734375,51015.27734375,51015.27734375,510.25462239583334,510.25462239583334,51015.27734375,51015.27734375,26244.503337828126,51015.27734375,2007-11-23 13:33:59,71,71,71,5357807.114388655,,,,,,,,,,,,,,,,,,,,,,,,,,,,,,,,,,,,,,,,,,,,,,,,,,,,,,,,,,,,,,,,,,,,,,,,
,,,,,,,2023-06-26 19:06:32.283743,1,0.0,0.0,0.0,0.973372810264002,23.29,,,,,,,,,,,,,,,,,,,,,,,,,,,,,,,,,,,,,,,,,,,,,,,,,,,,,,,,,,,,,,,,,,,,,,,,,,,,,,,,,,,,,,,,,,,,,,,
41.98073561166667,-91.79069488166667,255.747,0.9,RTK fixed,13,"$GPGGA,115739.00,4158.8441367,N,09147.4416929,W,4,13,0.9,255.747,M,-32.00,M,01,0000*6E
",2023-06-26 19:06:32.284451,1,,,,,,,,,,,,,,,,,,,,,,,,,,,,,,,,,,,,,,,,,,,,,,,,,,,,,,,,,,,,,,,,,,,,,,,,,,,,,,,,,,,,,,,,,,,,,,,,,,,,
41.98073561166667,-91.79069488166667,255.747,0.9,RTK fixed,13,"$GPGGA,115739.00,4158.8441367,N,09147.4416929,W,4,13,0.9,255.747,M,-32.00,M,01,0000*6E
",2023-06-26 19:06:32.295985,1,,,,,,,,,,,,,,,,,,,,,,,,,,,,,,,,,,,,,,,,,,,,,,,,,,,,,,,,,,,,,,,,,,,,,,,,,,,,,,,,,,,,,,,,,,,,,,,,,,,,
,,,,,,,2023-06-26 19:06:32.331146,1,,,,,,0,433 MHz Radio,-77 db,21,Bad,0,0,234213,KM6GNL,,,,,,,,,,,,6,,,,,,,,,,,,,,,,,,,0.0,0.0,1.0842023017324751e-19,-5.877471754111438e-39,-0.0,-2.369355800876173e-38,88.56256103515625,0.0,0.0,90.0,0.0,0.0,0.040010661543742776,"[1.0, 0.0, 0.0, 0.02]","[0.0, 0.0, 0.040010661543742776]",,,,,,,,,,,,,,,,,,,,,,,,,,,,,,,,,,,,,,,,,
,,,,,,,2023-06-26 19:06:32.508663,1,,,,,,0,433 MHz Radio,-74 db,11,Good,0,0,234213,KM6GNL,25.260000228881836,-308761.9375,-2474.4619140625,34.1291748046875,-118.207568359375,246.3000030517578,0.0,0.0,0.0,2023-06-26 19:06:28,4,6,0,1828186.814343893,,,,,,,,,,,,,,,,,,,,,,,,,,,,,,,,,,,,,,,,,,,,,,,,,,,,,,,,,,,,,,,,,,,,,,,,
,,,,,,,2023-06-26 19:06:32.523393,1,,,,,,0,433 MHz Radio,-71 db,15,Good,0,0,234410,KM6GNL,,,,,,,,,,,,6,,,,,,,,,,,,,,,,,,,0.0,0.0,0.0,-0.0,-0.0,-0.0,88.5,0.0,0.0,90.0,0.0,0.0,0.0,"[1.0, 0.0, 0.0, 0.0]","[0.0, 0.0, 0.0]",,,,,,,,,,,,,,,,,,,,,,,,,,,,,,,,,,,,,,,,,
,,,,,,,2023-06-26 19:06:32.635729,1,,,,,,0,433 MHz Radio,-72 db,8,Good,0,0,234410,KM6GNL,25.270000457763672,-309244.625,-2476.374755859375,34.1291748046875,-118.207568359375,246.3000030517578,0.0,0.0,0.0,2023-06-26 19:06:28,4,6,0,1828186.814343893,,,,,,,,,,,,,,,,,,,,,,,,,,,,,,,,,,,,,,,,,,,,,,,,,,,,,,,,,,,,,,,,,,,,,,,,
41.98073561166667,-91.79069488166667,255.747,0.9,RTK fixed,13,"$GPGGA,115739.00,4158.8441367,N,09147.4416929,W,4,13,0.9,255.747,M,-32.00,M,01,0000*6E
",2023-06-26 19:06:32.640437,1,,,,,,,,,,,,,,,,,,,,,,,,,,,,,,,,,,,,,,,,,,,,,,,,,,,,,,,,,,,,,,,,,,,,,,,,,,,,,,,,,,,,,,,,,,,,,,,,,,,,
41.98073561166667,-91.79069488166667,255.747,0.9,RTK fixed,13,"$GPGGA,115739.00,4158.8441367,N,09147.4416929,W,4,13,0.9,255.747,M,-32.00,M,01,0000*6E
",2023-06-26 19:06:32.706737,1,,,,,,,,,,,,,,,,,,,,,,,,,,,,,,,,,,,,,,,,,,,,,,,,,,,,,,,,,,,,,,,,,,,,,,,,,,,,,,,,,,,,,,,,,,,,,,,,,,,,
,,,,,,,2023-06-26 19:06:32.719154,1,,,,,,0,433 MHz Radio,-71 db,9,Good,0,0,234609,KM6GNL,,,,,,,,,,,,6,,,,,,,,,,,,,,,,,,,0.0,0.0,0.0,-0.0,-0.0,-0.0,88.5,0.0,0.0,90.0,0.0,0.0,0.0,"[1.0, 0.0, 0.0, 0.0]","[0.0, 0.0, 0.0]",,,,,,,,,,,,,,,,,,,,,,,,,,,,,,,,,,,,,,,,,
,,,,,,,2023-06-26 19:06:32.756314,1,,,,,,0,433 MHz Radio,-69 db,7,Good,0,0,234609,KM6GNL,25.290000915527344,-309727.6875,-2478.287841796875,34.1291748046875,-118.207568359375,246.3000030517578,0.0,0.0,0.0,2023-06-26 19:06:28,4,6,0,1828186.814343893,,,,,,,,,,,,,,,,,,,,,,,,,,,,,,,,,,,,,,,,,,,,,,,,,,,,,,,,,,,,,,,,,,,,,,,,
,,,,,,,2023-06-26 19:06:32.781638,1,,,,,,0,433 MHz Radio,-71 db,7,Good,0,0,234609,KM6GNL,,,,,,,,,,,,,,,,,,,,,,,,,,,,,,,,,,,,,,,,,,,,,,0.9710140824317932,0.9709647297859192,0.9710264205932617,0.0,14.850000381469727,246.3000030517578,,,,,,,,,,,,,,,,,,,,,,,,,,,,,,,,,,,
,,,,,,,2023-06-26 19:06:32.835344,1,,,,,,0,433 MHz Radio,-70 db,8,Good,0,0,234639,KM6GNL,,,,,,,,,,,,,,,"[False, False, False, False, False, False]","[False, False, False, False, False, False, False, False, False, False, False, False, False, False, False, False]",4,,,,,,,,,,,,,,,,,,,,,,,,,,,,,,,,,,,,,,,,,,,,,,,,,,,,,,,,,,,,,,,,,,,,,
,,,,,,,2023-06-26 19:06:32.854632,1,,,,,,0,433 MHz Radio,-70 db,10,Good,0,0,234639,KM6GNL,,,,,,,,,,,,,,,,,,0,0,0,0,0.0,0.0,0.0,0.0,0.0,0,0,0,0,,,,,,,,,,,,,,,,,,,,,,,,,,,,,,,,,,,,,,,,,,,,,,,,,,,,,,,,
,,,,,,,2023-06-26 19:06:32.912782,1,,,,,,0,433 MHz Radio,-69 db,6,Good,0,0,234639,KM6GNL,,,,,,,,,,,,,,,,,,0,0,0,0,0.0,0.0,0.0,0.0,0.0,0,0,0,0,,,,,,,,,,,,,,,,,,,,,,,,,,,,,,,,,,,,,,,,,,,,,,,,,,,,,,,,
,,,,,,,2023-06-26 19:06:32.924184,1,,,,,,0,433 MHz Radio,-70 db,7,Good,0,0,234806,KM6GNL,,,,,,,,,,,,6,,,,,,,,,,,,,,,,,,,0.0,0.0,0.0,-0.0,-0.0,-0.0,88.5,0.0,0.0,90.0,0.0,0.0,0.0,"[1.0, 0.0, 0.0, 0.0]","[0.0, 0.0, 0.0]",,,,,,,,,,,,,,,,,,,,,,,,,,,,,,,,,,,,,,,,,
,,,,,,,2023-06-26 19:06:32.978297,1,,,,,,0,433 MHz Radio,-70 db,7,Good,0,0,234806,KM6GNL,25.290000915527344,-310211.125,-2480.20068359375,34.1291748046875,-118.207568359375,246.3000030517578,0.0,0.0,0.0,2023-06-26 19:06:28,4,6,0,1828186.814343893,,,,,,,,,,,,,,,,,,,,,,,,,,,,,,,,,,,,,,,,,,,,,,,,,,,,,,,,,,,,,,,,,,,,,,,,
41.98073561166667,-91.79069488166667,255.747,0.9,RTK fixed,13,"$GPGGA,115739.00,4158.8441367,N,09147.4416929,W,4,13,0.9,255.747,M,-32.00,M,01,0000*6E
",2023-06-26 19:06:32.984938,1,,,,,,,,,,,,,,,,,,,,,,,,,,,,,,,,,,,,,,,,,,,,,,,,,,,,,,,,,,,,,,,,,,,,,,,,,,,,,,,,,,,,,,,,,,,,,,,,,,,,
41.98073561166667,-91.79069488166667,255.747,0.9,RTK fixed,13,"$GPGGA,115739.00,4158.8441367,N,09147.4416929,W,4,13,0.9,255.747,M,-32.00,M,01,0000*6E
",2023-06-26 19:06:32.990998,1,,,,,,,,,,,,,,,,,,,,,,,,,,,,,,,,,,,,,,,,,,,,,,,,,,,,,,,,,,,,,,,,,,,,,,,,,,,,,,,,,,,,,,,,,,,,,,,,,,,,
41.98073561166667,-91.79069488166667,255.747,0.9,RTK fixed,13,"$GPGGA,115739.00,4158.8441367,N,09147.4416929,W,4,13,0.9,255.747,M,-32.00,M,01,0000*6E
",2023-06-26 19:06:32.994043,1,,,,,,,,,,,,,,,,,,,,,,,,,,,,,,,,,,,,,,,,,,,,,,,,,,,,,,,,,,,,,,,,,,,,,,,,,,,,,,,,,,,,,,,,,,,,,,,,,,,,
41.98073561166667,-91.79069488166667,255.747,0.9,RTK fixed,13,"$GPGGA,115739.00,4158.8441367,N,09147.4416929,W,4,13,0.9,255.747,M,-32.00,M,01,0000*6E
",2023-06-26 19:06:33.109093,1,,,,,,,,,,,,,,,,,,,,,,,,,,,,,,,,,,,,,,,,,,,,,,,,,,,,,,,,,,,,,,,,,,,,,,,,,,,,,,,,,,,,,,,,,,,,,,,,,,,,
,,,,,,,2023-06-26 19:06:33.133597,1,,,,,,0,433 MHz Radio,-69 db,4,Good,0,0,235003,KM6GNL,,,,,,,,,,,,6,,,,,,,,,,,,,,,,,,,0.0,0.0,0.0,-0.0,-0.0,-0.0,88.5,0.0,0.0,90.0,0.0,0.0,0.0,"[1.0, 0.0, 0.0, 0.0]","[0.0, 0.0, 0.0]",,,,,,,,,,,,,,,,,,,,,,,,,,,,,,,,,,,,,,,,,
,,,,,,,2023-06-26 19:06:33.276974,1,,,,,,0,433 MHz Radio,-69 db,5,Good,0,0,235003,KM6GNL,25.290000915527344,-310694.9375,-2482.113525390625,34.1291748046875,-118.207568359375,246.3000030517578,0.0,0.0,0.0,2023-06-26 19:06:28,4,6,0,1828186.814343893,,,,,,,,,,,,,,,,,,,,,,,,,,,,,,,,,,,,,,,,,,,,,,,,,,,,,,,,,,,,,,,,,,,,,,,,
41.98073561166667,-91.79069488166667,255.747,0.9,RTK fixed,13,"$GPGGA,115739.00,4158.8441367,N,09147.4416929,W,4,13,0.9,255.747,M,-32.00,M,01,0000*6E
",2023-06-26 19:06:33.278616,1,,,,,,,,,,,,,,,,,,,,,,,,,,,,,,,,,,,,,,,,,,,,,,,,,,,,,,,,,,,,,,,,,,,,,,,,,,,,,,,,,,,,,,,,,,,,,,,,,,,,
41.98073561166667,-91.79069488166667,255.747,0.9,RTK fixed,13,"$GPGGA,115739.00,4158.8441367,N,09147.4416929,W,4,13,0.9,255.747,M,-32.00,M,01,0000*6E
",2023-06-26 19:06:33.282525,1,,,,,,,,,,,,,,,,,,,,,,,,,,,,,,,,,,,,,,,,,,,,,,,,,,,,,,,,,,,,,,,,,,,,,,,,,,,,,,,,,,,,,,,,,,,,,,,,,,,,
,,,,,,,2023-06-26 19:06:33.337017,1,,,,,,0,433 MHz Radio,-68 db,8,Good,0,0,235200,KM6GNL,,,,,,,,,,,,6,,,,,,,,,,,,,,,,,,,0.0,0.0,0.0,-0.0,-0.0,-0.0,88.5,0.0,0.0,90.0,0.0,0.0,0.0,"[1.0, 0.0, 0.0, 0.0]","[0.0, 0.0, 0.0]",,,,,,,,,,,,,,,,,,,,,,,,,,,,,,,,,,,,,,,,,
,,,,,,,2023-06-26 19:06:33.499014,1,,,,,,0,433 MHz Radio,-69 db,8,Good,0,0,235200,KM6GNL,25.309999465942383,-311179.125,-2484.026611328125,34.1291748046875,-118.207568359375,246.3000030517578,0.0,0.0,0.0,2023-06-26 19:06:28,4,6,0,1828186.814343893,,,,,,,,,,,,,,,,,,,,,,,,,,,,,,,,,,,,,,,,,,,,,,,,,,,,,,,,,,,,,,,,,,,,,,,,
,,,,,,,2023-06-26 19:06:33.543163,1,,,,,,0,433 MHz Radio,-70 db,8,Good,0,0,235410,KM6GNL,,,,,,,,,,,,6,,,,,,,,,,,,,,,,,,,0.0,0.0,0.0,-0.0,-0.0,-0.0,88.5,0.0,0.0,90.0,0.0,0.0,0.0,"[1.0, 0.0, 0.0, 0.0]","[0.0, 0.0, 0.0]",,,,,,,,,,,,,,,,,,,,,,,,,,,,,,,,,,,,,,,,,
,,,,,,,2023-06-26 19:06:33.645538,1,,,,,,0,433 MHz Radio,-69 db,6,Good,0,0,235410,KM6GNL,25.309999465942383,-311700.96875,-2486.086669921875,34.1291748046875,-118.207568359375,246.3000030517578,0.0,0.0,0.0,2023-06-26 19:06:28,4,6,0,1828186.814343893,,,,,,,,,,,,,,,,,,,,,,,,,,,,,,,,,,,,,,,,,,,,,,,,,,,,,,,,,,,,,,,,,,,,,,,,
41.98073561166667,-91.79069488166667,255.747,0.9,RTK fixed,13,"$GPGGA,115739.00,4158.8441367,N,09147.4416929,W,4,13,0.9,255.747,M,-32.00,M,01,0000*6E
",2023-06-26 19:06:33.649431,1,,,,,,,,,,,,,,,,,,,,,,,,,,,,,,,,,,,,,,,,,,,,,,,,,,,,,,,,,,,,,,,,,,,,,,,,,,,,,,,,,,,,,,,,,,,,,,,,,,,,
41.98073561166667,-91.79069488166667,255.747,0.9,RTK fixed,13,"$GPGGA,115739.00,4158.8441367,N,09147.4416929,W,4,13,0.9,255.747,M,-32.00,M,01,0000*6E
",2023-06-26 19:06:33.711843,1,,,,,,,,,,,,,,,,,,,,,,,,,,,,,,,,,,,,,,,,,,,,,,,,,,,,,,,,,,,,,,,,,,,,,,,,,,,,,,,,,,,,,,,,,,,,,,,,,,,,
,,,,,,,2023-06-26 19:06:33.726346,1,,,,,,0,433 MHz Radio,-70 db,6,Good,0,0,235607,KM6GNL,,,,,,,,,,,,6,,,,,,,,,,,,,,,,,,,0.0,0.0,0.0,-0.0,-0.0,-0.0,88.5,0.0,0.0,90.0,0.0,0.0,0.0,"[1.0, 0.0, 0.0, 0.0]","[0.0, 0.0, 0.0]",,,,,,,,,,,,,,,,,,,,,,,,,,,,,,,,,,,,,,,,,
,,,,,,,2023-06-26 19:06:33.771713,1,,,,,,0,433 MHz Radio,-70 db,7,Good,0,0,235607,KM6GNL,25.31999969482422,-312185.9375,-2487.99951171875,34.1291748046875,-118.207568359375,246.3000030517578,0.0,0.0,0.0,2023-06-26 19:06:28,4,6,0,1828186.814343893,,,,,,,,,,,,,,,,,,,,,,,,,,,,,,,,,,,,,,,,,,,,,,,,,,,,,,,,,,,,,,,,,,,,,,,,
,,,,,,,2023-06-26 19:06:33.803906,1,,,,,,0,433 MHz Radio,-70 db,7,Good,0,0,235652,KM6GNL,,,,,,,,,,,,,,,"[False, False, False, False, False, False]","[False, False, False, False, False, False, False, False, False, False, False, False, False, False, False, False]",4,,,,,,,,,,,,,,,,,,,,,,,,,,,,,,,,,,,,,,,,,,,,,,,,,,,,,,,,,,,,,,,,,,,,,
,,,,,,,2023-06-26 19:06:33.939272,1,,,,,,0,433 MHz Radio,-50 db,0,Bad,0,0,235652,KM6GNL,,,,,,,,,,,,,,,,,,0,0,0,0,0.0,0.0,0.0,0.0,0.0,0,0,0,0,,,,,,,,,,,,,,,,,,,,,,,,,,,,,,,,,,,,,,,,,,,,,,,,,,,,,,,,
,,,,,,,2023-06-26 19:06:33.948505,1,,,,,,0,433 MHz Radio,-70 db,9,Good,0,0,235804,KM6GNL,,,,,,,,,,,,6,,,,,,,,,,,,,,,,,,,0.0,0.0,0.0,-0.0,-0.0,-0.0,88.5,0.0,0.0,90.0,0.0,0.0,0.0,"[1.0, 0.0, 0.0, 0.0]","[0.0, 0.0, 0.0]",,,,,,,,,,,,,,,,,,,,,,,,,,,,,,,,,,,,,,,,,
,,,,,,,2023-06-26 19:06:33.961021,1,,,,,,0,433 MHz Radio,-71 db,7,Good,0,0,235804,KM6GNL,25.31999969482422,-312671.25,-2489.91259765625,34.1291748046875,-118.207568359375,246.3000030517578,0.0,0.0,0.0,2023-06-26 19:06:28,4,6,0,1828186.814343893,,,,,,,,,,,,,,,,,,,,,,,,,,,,,,,,,,,,,,,,,,,,,,,,,,,,,,,,,,,,,,,,,,,,,,,,
41.98073561166667,-91.79069488166667,255.747,0.9,RTK fixed,13,"$GPGGA,115739.00,4158.8441367,N,09147.4416929,W,4,13,0.9,255.747,M,-32.00,M,01,0000*6E
",2023-06-26 19:06:33.962691,1,,,,,,,,,,,,,,,,,,,,,,,,,,,,,,,,,,,,,,,,,,,,,,,,,,,,,,,,,,,,,,,,,,,,,,,,,,,,,,,,,,,,,,,,,,,,,,,,,,,,
41.98073561166667,-91.79069488166667,255.747,0.9,RTK fixed,13,"$GPGGA,115739.00,4158.8441367,N,09147.4416929,W,4,13,0.9,255.747,M,-32.00,M,01,0000*6E
",2023-06-26 19:06:33.963829,1,,,,,,,,,,,,,,,,,,,,,,,,,,,,,,,,,,,,,,,,,,,,,,,,,,,,,,,,,,,,,,,,,,,,,,,,,,,,,,,,,,,,,,,,,,,,,,,,,,,,
,,,,,,,2023-06-26 19:06:34.086117,1,,,,,,0,433 MHz Radio,-70 db,7,Good,0,0,235834,KM6GNL,,,,,,,,,,,,,,,,,,,,,,,,,,,,,,,,,,,,,,,,,,,,,,0.9709252119064331,0.9710338115692139,0.9710264205932617,0.0,14.850000381469727,246.3000030517578,,,,,,,,,,,,,,,,,,,,,,,,,,,,,,,,,,,
,,,,,,,2023-06-26 19:06:34.144287,1,,,,,,0,433 MHz Radio,-68 db,6,Good,0,0,236001,KM6GNL,,,,,,,,,,,,6,,,,,,,,,,,,,,,,,,,0.0,0.0,0.0,-0.0,-0.0,-0.0,88.5,0.0,0.0,90.0,0.0,0.0,0.0,"[1.0, 0.0, 0.0, 0.0]","[0.0, 0.0, 0.0]",,,,,,,,,,,,,,,,,,,,,,,,,,,,,,,,,,,,,,,,,
,,,,,,,2023-06-26 19:06:34.156252,1,,,,,,0,433 MHz Radio,-70 db,4,Good,0,0,236001,KM6GNL,25.31999969482422,-313156.96875,-2491.825439453125,34.1291748046875,-118.207568359375,246.3000030517578,0.0,0.0,0.0,2023-06-26 19:06:33,4,6,0,1828186.814343893,,,,,,,,,,,,,,,,,,,,,,,,,,,,,,,,,,,,,,,,,,,,,,,,,,,,,,,,,,,,,,,,,,,,,,,,
,,,,,,,2023-06-26 19:06:34.295927,1,0.0,0.0,0.0,0.9734221564273378,23.36,,,,,,,,,,,,,,,,,,,,,,,,,,,,,,,,,,,,,,,,,,,,,,,,,,,,,,,,,,,,,,,,,,,,,,,,,,,,,,,,,,,,,,,,,,,,,,,
41.98073561166667,-91.79069488166667,255.747,0.9,RTK fixed,13,"$GPGGA,115739.00,4158.8441367,N,09147.4416929,W,4,13,0.9,255.747,M,-32.00,M,01,0000*6E
",2023-06-26 19:06:34.297906,1,,,,,,,,,,,,,,,,,,,,,,,,,,,,,,,,,,,,,,,,,,,,,,,,,,,,,,,,,,,,,,,,,,,,,,,,,,,,,,,,,,,,,,,,,,,,,,,,,,,,
41.98073561166667,-91.79069488166667,255.747,0.9,RTK fixed,13,"$GPGGA,115739.00,4158.8441367,N,09147.4416929,W,4,13,0.9,255.747,M,-32.00,M,01,0000*6E
",2023-06-26 19:06:34.298822,1,,,,,,,,,,,,,,,,,,,,,,,,,,,,,,,,,,,,,,,,,,,,,,,,,,,,,,,,,,,,,,,,,,,,,,,,,,,,,,,,,,,,,,,,,,,,,,,,,,,,
,,,,,,,2023-06-26 19:06:34.342141,1,,,,,,0,433 MHz Radio,-69 db,3,Good,0,0,236213,KM6GNL,,,,,,,,,,,,6,,,,,,,,,,,,,,,,,,,0.0,0.0,0.0,-0.0,-0.0,-0.0,88.5,0.0,0.0,90.0,0.0,0.0,0.0,"[1.0, 0.0, 0.0, 0.0]","[0.0, 0.0, 0.0]",,,,,,,,,,,,,,,,,,,,,,,,,,,,,,,,,,,,,,,,,
,,,,,,,2023-06-26 19:06:34.508352,1,,,,,,0,433 MHz Radio,-69 db,7,Good,0,0,236213,KM6GNL,25.31999969482422,-313680.4375,-2493.8857421875,34.1291748046875,-118.207568359375,246.3000030517578,0.0,0.0,0.0,2023-06-26 19:06:33,4,6,0,1828186.814343893,,,,,,,,,,,,,,,,,,,,,,,,,,,,,,,,,,,,,,,,,,,,,,,,,,,,,,,,,,,,,,,,,,,,,,,,
,,,,,,,2023-06-26 19:06:34.521802,1,,,,,,0,433 MHz Radio,-68 db,5,Good,0,0,236408,KM6GNL,,,,,,,,,,,,6,,,,,,,,,,,,,,,,,,,0.0,0.0,0.0,-0.0,-0.0,-0.0,88.5,0.0,0.0,90.0,0.0,0.0,0.0,"[1.0, 0.0, 0.0, 0.0]","[0.0, 0.0, 0.0]",,,,,,,,,,,,,,,,,,,,,,,,,,,,,,,,,,,,,,,,,
,,,,,,,2023-06-26 19:06:34.632211,1,,,,,,0,433 MHz Radio,-69 db,5,Good,0,0,236408,KM6GNL,25.31999969482422,-314166.9375,-2495.798583984375,34.1291748046875,-118.207568359375,246.3000030517578,0.0,0.0,0.0,2023-06-26 19:06:33,4,6,0,1828186.814343893,,,,,,,,,,,,,,,,,,,,,,,,,,,,,,,,,,,,,,,,,,,,,,,,,,,,,,,,,,,,,,,,,,,,,,,,
41.98073561166667,-91.79069488166667,255.747,0.9,RTK fixed,13,"$GPGGA,115739.00,4158.8441367,N,09147.4416929,W,4,13,0.9,255.747,M,-32.00,M,01,0000*6E
",2023-06-26 19:06:34.633804,1,,,,,,,,,,,,,,,,,,,,,,,,,,,,,,,,,,,,,,,,,,,,,,,,,,,,,,,,,,,,,,,,,,,,,,,,,,,,,,,,,,,,,,,,,,,,,,,,,,,,
41.98073561166667,-91.79069488166667,255.747,0.9,RTK fixed,13,"$GPGGA,115739.00,4158.8441367,N,09147.4416929,W,4,13,0.9,255.747,M,-32.00,M,01,0000*6E
",2023-06-26 19:06:34.693774,1,,,,,,,,,,,,,,,,,,,,,,,,,,,,,,,,,,,,,,,,,,,,,,,,,,,,,,,,,,,,,,,,,,,,,,,,,,,,,,,,,,,,,,,,,,,,,,,,,,,,
,,,,,,,2023-06-26 19:06:34.730394,1,,,,,,0,433 MHz Radio,-69 db,6,Good,0,0,236605,KM6GNL,,,,,,,,,,,,6,,,,,,,,,,,,,,,,,,,0.0,0.0,0.0,-0.0,-0.0,-0.0,88.5,0.0,0.0,90.0,0.0,0.0,0.0,"[1.0, 0.0, 0.0, 0.0]","[0.0, 0.0, 0.0]",,,,,,,,,,,,,,,,,,,,,,,,,,,,,,,,,,,,,,,,,
,,,,,,,2023-06-26 19:06:34.744044,1,,,,,,0,433 MHz Radio,-69 db,8,Good,0,0,236605,KM6GNL,25.31999969482422,-314653.78125,-2497.71142578125,34.1291748046875,-118.207568359375,246.3000030517578,0.0,0.0,0.0,2023-06-26 19:06:33,4,6,0,1828186.814343893,,,,,,,,,,,,,,,,,,,,,,,,,,,,,,,,,,,,,,,,,,,,,,,,,,,,,,,,,,,,,,,,,,,,,,,,
,,,,,,,2023-06-26 19:06:34.811809,1,,,,,,0,433 MHz Radio,-69 db,8,Good,0,0,236665,KM6GNL,,,,,,,,,,,,,,,"[False, False, False, False, False, False]","[False, False, False, False, False, False, False, False, False, False, False, False, False, False, False, False]",4,,,,,,,,,,,,,,,,,,,,,,,,,,,,,,,,,,,,,,,,,,,,,,,,,,,,,,,,,,,,,,,,,,,,,
,,,,,,,2023-06-26 19:06:34.812887,1,,,,,,0,433 MHz Radio,-70 db,10,Good,0,0,236665,KM6GNL,,,,,,,,,,,,,,,,,,0,0,0,0,0.0,0.0,0.0,0.0,0.0,0,0,0,0,,,,,,,,,,,,,,,,,,,,,,,,,,,,,,,,,,,,,,,,,,,,,,,,,,,,,,,,
,,,,,,,2023-06-26 19:06:34.895371,1,,,,,,0,433 MHz Radio,-70 db,9,Good,0,0,236665,KM6GNL,,,,,,,,,,,,,,,,,,0,0,0,0,0.0,0.0,0.0,0.0,0.0,0,0,0,0,,,,,,,,,,,,,,,,,,,,,,,,,,,,,,,,,,,,,,,,,,,,,,,,,,,,,,,,
,,,,,,,2023-06-26 19:06:34.931112,1,,,,,,0,433 MHz Radio,-69 db,6,Good,0,0,236802,KM6GNL,,,,,,,,,,,,6,,,,,,,,,,,,,,,,,,,0.0,0.0,0.0,-0.0,-0.0,-0.0,88.5,0.0,0.0,90.0,0.0,0.0,0.0,"[1.0, 0.0, 0.0, 0.0]","[0.0, 0.0, 0.0]",,,,,,,,,,,,,,,,,,,,,,,,,,,,,,,,,,,,,,,,,
,,,,,,,2023-06-26 19:06:34.952866,1,,,,,,0,433 MHz Radio,-70 db,6,Good,0,0,236802,KM6GNL,25.31999969482422,-315141.0,-2499.62451171875,34.1291748046875,-118.207568359375,246.3000030517578,0.0,0.0,0.0,2023-06-26 19:06:33,4,6,0,1828186.814343893,,,,,,,,,,,,,,,,,,,,,,,,,,,,,,,,,,,,,,,,,,,,,,,,,,,,,,,,,,,,,,,,,,,,,,,,
41.98073561166667,-91.79069488166667,255.747,0.9,RTK fixed,13,"$GPGGA,115739.00,4158.8441367,N,09147.4416929,W,4,13,0.9,255.747,M,-32.00,M,01,0000*6E
",2023-06-26 19:06:34.955622,1,,,,,,,,,,,,,,,,,,,,,,,,,,,,,,,,,,,,,,,,,,,,,,,,,,,,,,,,,,,,,,,,,,,,,,,,,,,,,,,,,,,,,,,,,,,,,,,,,,,,
41.98073561166667,-91.79069488166667,255.747,0.9,RTK fixed,13,"$GPGGA,115739.00,4158.8441367,N,09147.4416929,W,4,13,0.9,255.747,M,-32.00,M,01,0000*6E
",2023-06-26 19:06:35.111493,1,,,,,,,,,,,,,,,,,,,,,,,,,,,,,,,,,,,,,,,,,,,,,,,,,,,,,,,,,,,,,,,,,,,,,,,,,,,,,,,,,,,,,,,,,,,,,,,,,,,,
,,,,,,,2023-06-26 19:06:35.123023,1,,,,,,0,433 MHz Radio,-70 db,10,Good,0,0,237014,KM6GNL,,,,,,,,,,,,6,,,,,,,,,,,,,,,,,,,0.0,0.0,0.0,-0.0,-0.0,-0.0,88.5,0.0,0.0,90.0,0.0,0.0,0.0,"[1.0, 0.0, 0.0, 0.0]","[0.0, 0.0, 0.0]",,,,,,,,,,,,,,,,,,,,,,,,,,,,,,,,,,,,,,,,,
,,,,,,,2023-06-26 19:06:35.178579,1,,,,,,0,433 MHz Radio,-69 db,5,Good,0,0,237014,KM6GNL,25.31999969482422,-315666.125,-2501.6845703125,34.1291748046875,-118.207568359375,246.3000030517578,0.0,0.0,0.0,2023-06-26 19:06:33,4,6,0,1828186.814343893,,,,,,,,,,,,,,,,,,,,,,,,,,,,,,,,,,,,,,,,,,,,,,,,,,,,,,,,,,,,,,,,,,,,,,,,
,,,,,,,2023-06-26 19:06:35.269084,1,,,,,,0,433 MHz Radio,-69 db,9,Good,0,0,237059,KM6GNL,,,,,,,,,,,,,,,,,,,,,,,,,,,,,,,,,,,,,,,,,,,,,,0.9711325168609619,0.9709548354148865,0.9710264205932617,0.0,14.850000381469727,246.3000030517578,,,,,,,,,,,,,,,,,,,,,,,,,,,,,,,,,,,
41.98073561166667,-91.79069488166667,255.747,0.9,RTK fixed,13,"$GPGGA,115739.00,4158.8441367,N,09147.4416929,W,4,13,0.9,255.747,M,-32.00,M,01,0000*6E
",2023-06-26 19:06:35.270478,1,,,,,,,,,,,,,,,,,,,,,,,,,,,,,,,,,,,,,,,,,,,,,,,,,,,,,,,,,,,,,,,,,,,,,,,,,,,,,,,,,,,,,,,,,,,,,,,,,,,,
41.98073561166667,-91.79069488166667,255.747,0.9,RTK fixed,13,"$GPGGA,115739.00,4158.8441367,N,09147.4416929,W,4,13,0.9,255.747,M,-32.00,M,01,0000*6E
",2023-06-26 19:06:35.334375,1,,,,,,,,,,,,,,,,,,,,,,,,,,,,,,,,,,,,,,,,,,,,,,,,,,,,,,,,,,,,,,,,,,,,,,,,,,,,,,,,,,,,,,,,,,,,,,,,,,,,
,,,,,,,2023-06-26 19:06:35.337568,1,,,,,,0,433 MHz Radio,-68 db,9,Good,0,0,237211,KM6GNL,,,,,,,,,,,,6,,,,,,,,,,,,,,,,,,,0.0,0.0,0.0,-0.0,-0.0,-0.0,88.5,0.0,0.0,90.0,0.0,0.0,0.0,"[1.0, 0.0, 0.0, 0.0]","[0.0, 0.0, 0.0]",,,,,,,,,,,,,,,,,,,,,,,,,,,,,,,,,,,,,,,,,
,,,,,,,2023-06-26 19:06:35.487942,1,,,,,,0,433 MHz Radio,-68 db,5,Good,0,0,237211,KM6GNL,25.31999969482422,-316154.125,-2503.597412109375,34.1291748046875,-118.207568359375,246.3000030517578,0.0,0.0,0.0,2023-06-26 19:06:33,4,6,0,1828186.814343893,,,,,,,,,,,,,,,,,,,,,,,,,,,,,,,,,,,,,,,,,,,,,,,,,,,,,,,,,,,,,,,,,,,,,,,,
,,,,,,,2023-06-26 19:06:35.534081,1,,,,,,0,433 MHz Radio,-69 db,5,Good,0,0,237408,KM6GNL,,,,,,,,,,,,6,,,,,,,,,,,,,,,,,,,0.0,0.0,0.0,-0.0,-0.0,-0.0,88.5,0.0,0.0,90.0,0.0,0.0,0.0,"[1.0, 0.0, 0.0, 0.0]","[0.0, 0.0, 0.0]",,,,,,,,,,,,,,,,,,,,,,,,,,,,,,,,,,,,,,,,,
,,,,,,,2023-06-26 19:06:35.610061,1,,,,,,0,433 MHz Radio,-68 db,4,Good,0,0,237408,KM6GNL,25.34000015258789,-316642.5,-2505.510498046875,34.1291748046875,-118.207568359375,246.3000030517578,0.0,0.0,0.0,2023-06-26 19:06:33,4,6,0,1828186.814343893,,,,,,,,,,,,,,,,,,,,,,,,,,,,,,,,,,,,,,,,,,,,,,,,,,,,,,,,,,,,,,,,,,,,,,,,
41.98073561166667,-91.79069488166667,255.747,0.9,RTK fixed,13,"$GPGGA,115739.00,4158.8441367,N,09147.4416929,W,4,13,0.9,255.747,M,-32.00,M,01,0000*6E
",2023-06-26 19:06:35.617015,1,,,,,,,,,,,,,,,,,,,,,,,,,,,,,,,,,,,,,,,,,,,,,,,,,,,,,,,,,,,,,,,,,,,,,,,,,,,,,,,,,,,,,,,,,,,,,,,,,,,,
41.98073561166667,-91.79069488166667,255.747,0.9,RTK fixed,13,"$GPGGA,115739.00,4158.8441367,N,09147.4416929,W,4,13,0.9,255.747,M,-32.00,M,01,0000*6E
",2023-06-26 19:06:35.691933,1,,,,,,,,,,,,,,,,,,,,,,,,,,,,,,,,,,,,,,,,,,,,,,,,,,,,,,,,,,,,,,,,,,,,,,,,,,,,,,,,,,,,,,,,,,,,,,,,,,,,
,,,,,,,2023-06-26 19:06:35.769757,1,,,,,,0,433 MHz Radio,68 db,118,Bad,0,0,237603,KM6GNL,25.329999923706055,-317131.25,-2507.42333984375,34.1291748046875,-118.207568359375,1.2488893868191021e+33,1.2497145512265383e+33,6.4290815259118525e+32,1.2497145512265383e+33,2032-12-23 20:24:22,118,118,118,1828186.814343893,,,,,,,,,,,,,,,,,,,,,,,,,,,,,,,,,,,,,,,,,,,,,,,,,,,,,,,,,,,,,,,,,,,,,,,,
,,,,,,,2023-06-26 19:06:35.781487,1,,,,,,0,433 MHz Radio,-69 db,10,Good,0,0,237665,KM6GNL,,,,,,,,,,,,,,,"[False, False, False, False, False, False]","[False, False, False, False, False, False, False, False, False, False, False, False, False, False, False, False]",4,,,,,,,,,,,,,,,,,,,,,,,,,,,,,,,,,,,,,,,,,,,,,,,,,,,,,,,,,,,,,,,,,,,,,
,,,,,,,2023-06-26 19:06:35.834724,1,,,,,,0,433 MHz Radio,-69 db,6,Good,0,0,237665,KM6GNL,,,,,,,,,,,,,,,,,,0,0,0,0,0.0,0.0,0.0,0.0,0.0,0,0,0,0,,,,,,,,,,,,,,,,,,,,,,,,,,,,,,,,,,,,,,,,,,,,,,,,,,,,,,,,
,,,,,,,2023-06-26 19:06:35.886057,1,,,,,,0,433 MHz Radio,-69 db,6,Good,0,0,237665,KM6GNL,,,,,,,,,,,,,,,,,,0,0,0,0,0.0,0.0,0.0,0.0,0.0,0,0,0,0,,,,,,,,,,,,,,,,,,,,,,,,,,,,,,,,,,,,,,,,,,,,,,,,,,,,,,,,
,,,,,,,2023-06-26 19:06:35.924673,1,,,,,,0,433 MHz Radio,-70 db,5,Good,0,0,237802,KM6GNL,,,,,,,,,,,,6,,,,,,,,,,,,,,,,,,,0.0,0.0,0.0,-0.0,-0.0,-0.0,88.5,0.0,0.0,90.0,0.0,0.0,0.0,"[1.0, 0.0, 0.0, 0.0]","[0.0, 0.0, 0.0]",,,,,,,,,,,,,,,,,,,,,,,,,,,,,,,,,,,,,,,,,
,,,,,,,2023-06-26 19:06:35.960877,1,,,,,,0,433 MHz Radio,-69 db,5,Good,0,0,237802,KM6GNL,25.31999969482422,-317620.375,-2509.33642578125,34.1291748046875,-118.207568359375,246.3000030517578,0.0,0.0,0.0,2023-06-26 19:06:33,4,6,0,1828186.814343893,,,,,,,,,,,,,,,,,,,,,,,,,,,,,,,,,,,,,,,,,,,,,,,,,,,,,,,,,,,,,,,,,,,,,,,,
41.98073561166667,-91.79069488166667,255.747,0.9,RTK fixed,13,"$GPGGA,115739.00,4158.8441367,N,09147.4416929,W,4,13,0.9,255.747,M,-32.00,M,01,0000*6E
",2023-06-26 19:06:35.973957,1,,,,,,,,,,,,,,,,,,,,,,,,,,,,,,,,,,,,,,,,,,,,,,,,,,,,,,,,,,,,,,,,,,,,,,,,,,,,,,,,,,,,,,,,,,,,,,,,,,,,
41.98073561166667,-91.79069488166667,255.747,0.9,RTK fixed,13,"$GPGGA,115739.00,4158.8441367,N,09147.4416929,W,4,13,0.9,255.747,M,-32.00,M,01,0000*6E
",2023-06-26 19:06:36.087641,1,,,,,,,,,,,,,,,,,,,,,,,,,,,,,,,,,,,,,,,,,,,,,,,,,,,,,,,,,,,,,,,,,,,,,,,,,,,,,,,,,,,,,,,,,,,,,,,,,,,,
,,,,,,,2023-06-26 19:06:36.144502,1,,,,,,0,433 MHz Radio,-71 db,7,Good,0,0,238012,KM6GNL,,,,,,,,,,,,6,,,,,,,,,,,,,,,,,,,0.0,0.0,0.0,-0.0,-0.0,-0.0,88.5,0.0,0.0,90.0,0.0,0.0,0.0,"[1.0, 0.0, 0.0, 0.0]","[0.0, 0.0, 0.0]",,,,,,,,,,,,,,,,,,,,,,,,,,,,,,,,,,,,,,,,,
,,,,,,,2023-06-26 19:06:36.290172,1,0.0,0.0,0.0,0.9733037256353319,23.44,,,,,,,,,,,,,,,,,,,,,,,,,,,,,,,,,,,,,,,,,,,,,,,,,,,,,,,,,,,,,,,,,,,,,,,,,,,,,,,,,,,,,,,,,,,,,,,
41.98073561166667,-91.79069488166667,255.747,0.9,RTK fixed,13,"$GPGGA,115739.00,4158.8441367,N,09147.4416929,W,4,13,0.9,255.747,M,-32.00,M,01,0000*6E
",2023-06-26 19:06:36.293379,1,,,,,,,,,,,,,,,,,,,,,,,,,,,,,,,,,,,,,,,,,,,,,,,,,,,,,,,,,,,,,,,,,,,,,,,,,,,,,,,,,,,,,,,,,,,,,,,,,,,,
41.98073561166667,-91.79069488166667,255.747,0.9,RTK fixed,13,"$GPGGA,115739.00,4158.8441367,N,09147.4416929,W,4,13,0.9,255.747,M,-32.00,M,01,0000*6E
",2023-06-26 19:06:36.316672,1,,,,,,,,,,,,,,,,,,,,,,,,,,,,,,,,,,,,,,,,,,,,,,,,,,,,,,,,,,,,,,,,,,,,,,,,,,,,,,,,,,,,,,,,,,,,,,,,,,,,
,,,,,,,2023-06-26 19:06:36.362507,1,,,,,,0,433 MHz Radio,-73 db,22,Bad,0,0,1141088897,KM6GNL,,,,,,,,,,,,6,,,,,,,,,,,,,,,,,,,1.1501857795178099e-41,0.0,9.183829875491986e-41,-0.0,-1.653397663250709e-39,-2.9595423566540137e-42,20608.001953125,-3.790969729817386e-37,9.404098299541047e-38,192.4,-2.29771015366294,0.0,0.0,"[1.0, -1.28, 0.0, 0.0]","[-2.29771015366294, 0.0, 0.0]",,,,,,,,,,,,,,,,,,,,,,,,,,,,,,,,,,,,,,,,,
,,,,,,,2023-06-26 19:06:36.376539,1,,,,,,0,433 MHz Radio,-70 db,6,Bad,0,0,238209,KM6GNL,25.290000915527344,-318637.4375,-2513.309326171875,34.1291748046875,-118.22423502604167,246.3000030517578,0.0,0.0,0.0,2023-06-26 19:06:33,4,6,0,1829652.5438873204,,,,,,,,,,,,,,,,,,,,,,,,,,,,,,,,,,,,,,,,,,,,,,,,,,,,,,,,,,,,,,,,,,,,,,,,
,,,,,,,2023-06-26 19:06:36.513593,1,,,,,,0,433 MHz Radio,-71 db,7,Good,0,0,238286,KM6GNL,,,,,,,,,,,,,,,,,,,,,,,,,,,,,,,,,,,,,,,,,,,,,,0.9710732698440552,0.9709647297859192,0.9710264205932617,0.0,14.850000381469727,246.3000030517578,,,,,,,,,,,,,,,,,,,,,,,,,,,,,,,,,,,
,,,,,,,2023-06-26 19:06:36.525697,1,,,,,,0,433 MHz Radio,-79 db,16,Bad,72,0,238374,KÍ6GL,,,,,,,,,,,,6,,,,,,,,,,,,,,,,,,,3.625030517578125,2.0625,1.4693903593032886e-39,-2.786488257049412e-17,-1.1011428314305904e-19,-2.87126055340155e-42,90.5,2.00006103515625,2.5243554985603454e-29,90.0,3.104882463917125,-0.2497895023633545,-3.1373168912982066,"[-0.12, 0.0, 1.03, 0.02]","[3.104882463917125, -0.2497895023633545, -3.1373168912982066]",,,,,,,,,,,,,,,,,,,,,,,,,,,,,,,,,,,,,,,,,
,,,,,,,2023-06-26 19:06:36.634273,1,,,,,,0,433 MHz Radio,-71 db,5,Good,0,0,238406,KM6GNL,25.290000915527344,-319127.6875,-2515.222412109375,34.1291748046875,-118.207568359375,246.3000030517578,0.0,0.0,0.0,2023-06-26 19:06:33,4,6,0,1828186.814343893,,,,,,,,,,,,,,,,,,,,,,,,,,,,,,,,,,,,,,,,,,,,,,,,,,,,,,,,,,,,,,,,,,,,,,,,
41.98073561166667,-91.79069488166667,255.747,0.9,RTK fixed,13,"$GPGGA,115739.00,4158.8441367,N,09147.4416929,W,4,13,0.9,255.747,M,-32.00,M,01,0000*6E
",2023-06-26 19:06:36.652670,1,,,,,,,,,,,,,,,,,,,,,,,,,,,,,,,,,,,,,,,,,,,,,,,,,,,,,,,,,,,,,,,,,,,,,,,,,,,,,,,,,,,,,,,,,,,,,,,,,,,,
41.98073561166667,-91.79069488166667,255.747,0.9,RTK fixed,13,"$GPGGA,115739.00,4158.8441367,N,09147.4416929,W,4,13,0.9,255.747,M,-32.00,M,01,0000*6E
",2023-06-26 19:06:36.701462,1,,,,,,,,,,,,,,,,,,,,,,,,,,,,,,,,,,,,,,,,,,,,,,,,,,,,,,,,,,,,,,,,,,,,,,,,,,,,,,,,,,,,,,,,,,,,,,,,,,,,
,,,,,,,2023-06-26 19:06:36.723224,1,,,,,,0,433 MHz Radio,-65 db,5,Good,0,0,238603,KM6GNL,,,,,,,,,,,,6,,,,,,,,,,,,,,,,,,,0.0,0.0,0.0,-0.0,-0.0,-0.0,88.5,0.0,0.0,90.0,0.0,0.0,0.0,"[1.0, 0.0, 0.0, 0.0]","[0.0, 0.0, 0.0]",,,,,,,,,,,,,,,,,,,,,,,,,,,,,,,,,,,,,,,,,
,,,,,,,2023-06-26 19:06:36.780190,1,,,,,,0,433 MHz Radio,-66 db,6,Good,0,0,238603,KM6GNL,25.290000915527344,-319618.34375,-2517.13525390625,34.1291748046875,-118.207568359375,246.3000030517578,0.0,0.0,0.0,2023-06-26 19:06:33,4,6,0,1828186.814343893,,,,,,,,,,,,,,,,,,,,,,,,,,,,,,,,,,,,,,,,,,,,,,,,,,,,,,,,,,,,,,,,,,,,,,,,
,,,,,,,2023-06-26 19:06:36.811216,1,,,,,,0,433 MHz Radio,-66 db,5,Good,0,0,238678,KM6GNL,,,,,,,,,,,,,,,"[False, False, False, False, False, False]","[False, False, False, False, False, False, False, False, False, False, False, False, False, False, False, False]",4,,,,,,,,,,,,,,,,,,,,,,,,,,,,,,,,,,,,,,,,,,,,,,,,,,,,,,,,,,,,,,,,,,,,,
,,,,,,,2023-06-26 19:06:36.822547,1,,,,,,0,433 MHz Radio,-67 db,7,Good,0,0,238678,KM6GNL,,,,,,,,,,,,,,,,,,0,0,0,0,0.0,0.0,0.0,0.0,0.0,0,0,0,0,,,,,,,,,,,,,,,,,,,,,,,,,,,,,,,,,,,,,,,,,,,,,,,,,,,,,,,,
,,,,,,,2023-06-26 19:06:36.885756,1,,,,,,0,433 MHz Radio,-68 db,7,Good,0,0,238678,KM6GNL,,,,,,,,,,,,,,,,,,0,0,0,0,0.0,0.0,0.0,0.0,0.0,0,0,0,0,,,,,,,,,,,,,,,,,,,,,,,,,,,,,,,,,,,,,,,,,,,,,,,,,,,,,,,,
,,,,,,,2023-06-26 19:06:36.935658,1,,,,,,0,433 MHz Radio,-59 db,3,Good,0,0,238800,KM6GNL,,,,,,,,,,,,6,,,,,,,,,,,,,,,,,,,0.0,0.0,0.0,-0.0,-0.0,-0.0,88.5,0.0,0.0,90.0,0.0,0.0,0.0,"[1.0, 0.0, 0.0, 0.0]","[0.0, 0.0, 0.0]",,,,,,,,,,,,,,,,,,,,,,,,,,,,,,,,,,,,,,,,,
,,,,,,,2023-06-26 19:06:36.961090,1,,,,,,0,433 MHz Radio,-59 db,4,Good,0,0,238800,KM6GNL,25.309999465942383,-320109.34375,-2519.04833984375,34.1291748046875,-118.207568359375,246.3000030517578,0.0,0.0,0.0,2023-06-26 19:06:33,4,6,0,1828186.814343893,,,,,,,,,,,,,,,,,,,,,,,,,,,,,,,,,,,,,,,,,,,,,,,,,,,,,,,,,,,,,,,,,,,,,,,,
41.98073561166667,-91.79069488166667,255.747,0.9,RTK fixed,13,"$GPGGA,115739.00,4158.8441367,N,09147.4416929,W,4,13,0.9,255.747,M,-32.00,M,01,0000*6E
",2023-06-26 19:06:36.965793,1,,,,,,,,,,,,,,,,,,,,,,,,,,,,,,,,,,,,,,,,,,,,,,,,,,,,,,,,,,,,,,,,,,,,,,,,,,,,,,,,,,,,,,,,,,,,,,,,,,,,
41.98073561166667,-91.79069488166667,255.747,0.9,RTK fixed,13,"$GPGGA,115739.00,4158.8441367,N,09147.4416929,W,4,13,0.9,255.747,M,-32.00,M,01,0000*6E
",2023-06-26 19:06:37.094423,1,,,,,,,,,,,,,,,,,,,,,,,,,,,,,,,,,,,,,,,,,,,,,,,,,,,,,,,,,,,,,,,,,,,,,,,,,,,,,,,,,,,,,,,,,,,,,,,,,,,,
,,,,,,,2023-06-26 19:06:37.117935,1,,,,,,0,433 MHz Radio,-53 db,3,Good,0,0,239012,KM6GNL,,,,,,,,,,,,6,,,,,,,,,,,,,,,,,,,0.0,0.0,0.0,-0.0,-0.0,-0.0,88.5,0.0,0.0,90.0,0.0,0.0,0.0,"[1.0, 0.0, 0.0, 0.0]","[0.0, 0.0, 0.0]",,,,,,,,,,,,,,,,,,,,,,,,,,,,,,,,,,,,,,,,,
,,,,,,,2023-06-26 19:06:37.284992,1,,,,,,0,433 MHz Radio,-47 db,4,Good,0,0,239012,KM6GNL,25.309999465942383,-320638.5625,-2521.1083984375,34.1291748046875,-118.207568359375,246.3000030517578,0.0,0.0,0.0,2023-06-26 19:06:33,4,6,0,1828186.814343893,,,,,,,,,,,,,,,,,,,,,,,,,,,,,,,,,,,,,,,,,,,,,,,,,,,,,,,,,,,,,,,,,,,,,,,,
41.98073561166667,-91.79069488166667,255.747,0.9,RTK fixed,13,"$GPGGA,115739.00,4158.8441367,N,09147.4416929,W,4,13,0.9,255.747,M,-32.00,M,01,0000*6E
",2023-06-26 19:06:37.296897,1,,,,,,,,,,,,,,,,,,,,,,,,,,,,,,,,,,,,,,,,,,,,,,,,,,,,,,,,,,,,,,,,,,,,,,,,,,,,,,,,,,,,,,,,,,,,,,,,,,,,
41.98073561166667,-91.79069488166667,255.747,0.9,RTK fixed,13,"$GPGGA,115739.00,4158.8441367,N,09147.4416929,W,4,13,0.9,255.747,M,-32.00,M,01,0000*6E
",2023-06-26 19:06:37.316677,1,,,,,,,,,,,,,,,,,,,,,,,,,,,,,,,,,,,,,,,,,,,,,,,,,,,,,,,,,,,,,,,,,,,,,,,,,,,,,,,,,,,,,,,,,,,,,,,,,,,,
,,,,,,,2023-06-26 19:06:37.320768,1,,,,,,0,433 MHz Radio,-53 db,3,Good,0,0,239209,KM6GNL,,,,,,,,,,,,6,,,,,,,,,,,,,,,,,,,0.0,0.0,0.0,-0.0,-0.0,-0.0,88.5,0.0,0.0,90.0,0.0,0.0,0.0,"[1.0, 0.0, 0.0, 0.0]","[0.0, 0.0, 0.0]",,,,,,,,,,,,,,,,,,,,,,,,,,,,,,,,,,,,,,,,,
,,,,,,,2023-06-26 19:06:37.483413,1,,,,,,0,433 MHz Radio,-52 db,3,Good,0,0,239209,KM6GNL,25.309999465942383,-321130.34375,-2523.021240234375,34.1291748046875,-118.207568359375,246.3000030517578,0.0,0.0,0.0,2023-06-26 19:06:33,4,6,0,1828186.814343893,,,,,,,,,,,,,,,,,,,,,,,,,,,,,,,,,,,,,,,,,,,,,,,,,,,,,,,,,,,,,,,,,,,,,,,,
,,,,,,,2023-06-26 19:06:37.600958,1,,,,,,0,433 MHz Radio,25 db,75,Bad,0,0,239406,KKKKKKK,13323083.0,13323083.0,13323083.0,133231.38333333333,133231.38333333333,13323083.0,13323083.0,6853980.110852,13323083.0,2010-01-11 08:01:15,75,75,75,6305911.435160628,,,,,,,,,,,,,,,,,,,,,,,,,,,,,,,,,,,,,,,,,,,,,,,,,,,,,,,,,,,,,,,,,,,,,,,,
41.98073561166667,-91.79069488166667,255.747,0.9,RTK fixed,13,"$GPGGA,115739.00,4158.8441367,N,09147.4416929,W,4,13,0.9,255.747,M,-32.00,M,01,0000*6E
",2023-06-26 19:06:37.601675,1,,,,,,,,,,,,,,,,,,,,,,,,,,,,,,,,,,,,,,,,,,,,,,,,,,,,,,,,,,,,,,,,,,,,,,,,,,,,,,,,,,,,,,,,,,,,,,,,,,,,
41.98073561166667,-91.79069488166667,255.747,0.9,RTK fixed,13,"$GPGGA,115739.00,4158.8441367,N,09147.4416929,W,4,13,0.9,255.747,M,-32.00,M,01,0000*6E
",2023-06-26 19:06:37.708188,1,,,,,,,,,,,,,,,,,,,,,,,,,,,,,,,,,,,,,,,,,,,,,,,,,,,,,,,,,,,,,,,,,,,,,,,,,,,,,,,,,,,,,,,,,,,,,,,,,,,,
,,,,,,,2023-06-26 19:06:37.737821,1,,,,,,0,433 MHz Radio,-67 db,6,Good,0,0,239603,KM6GNL,,,,,,,,,,,,6,,,,,,,,,,,,,,,,,,,0.0,0.0,0.0,-0.0,-0.0,-0.0,88.5,0.0,0.0,90.0,0.0,0.0,0.0,"[1.0, 0.0, 0.0, 0.0]","[0.0, 0.0, 0.0]",,,,,,,,,,,,,,,,,,,,,,,,,,,,,,,,,,,,,,,,,
,,,,,,,2023-06-26 19:06:37.774320,1,,,,,,0,433 MHz Radio,-68 db,9,Good,0,0,239603,KM6GNL,25.309999465942383,-322115.03125,-2526.84716796875,34.1291748046875,-118.207568359375,246.3000030517578,0.0,0.0,0.0,2023-06-26 19:06:33,4,6,0,1828186.814343893,,,,,,,,,,,,,,,,,,,,,,,,,,,,,,,,,,,,,,,,,,,,,,,,,,,,,,,,,,,,,,,,,,,,,,,,
,,,,,,,2023-06-26 19:06:37.833982,1,,,,,,0,433 MHz Radio,-72 db,14,Good,0,0,239603,KM6GNL,,,,,,,,,,,,,,,,,,,,,,,,,,,,,,,,,,,,,,,,,,,,,,0.9711127281188965,0.9710140824317932,0.9710264205932617,0.0,14.850000381469727,246.3000030517578,,,,,,,,,,,,,,,,,,,,,,,,,,,,,,,,,,,
,,,,,,,2023-06-26 19:06:37.965560,1,,,,,,0,433 MHz Radio,-78 db,19,Bad,44,0,402897982,KM4GNL,,,,,,,,,,,,,,,,,,4,,,,,,,,,,,,,,,,,,,,,,,,,,,,,,,,,,1.7081402285386365e-37,2048,0,2147745792,16,1.401298464324817e-45,142002356224.0,8224,0,27529336,34078848,,,,,,,,,,,,,,,,,,,,,,,,
41.98073561166667,-91.79069488166667,255.747,0.9,RTK fixed,13,"$GPGGA,115739.00,4158.8441367,N,09147.4416929,W,4,13,0.9,255.747,M,-32.00,M,01,0000*6E
",2023-06-26 19:06:37.966328,1,,,,,,,,,,,,,,,,,,,,,,,,,,,,,,,,,,,,,,,,,,,,,,,,,,,,,,,,,,,,,,,,,,,,,,,,,,,,,,,,,,,,,,,,,,,,,,,,,,,,
41.98073561166667,-91.79069488166667,255.747,0.9,RTK fixed,13,"$GPGGA,115739.00,4158.8441367,N,09147.4416929,W,4,13,0.9,255.747,M,-32.00,M,01,0000*6E
",2023-06-26 19:06:37.967344,1,,,,,,,,,,,,,,,,,,,,,,,,,,,,,,,,,,,,,,,,,,,,,,,,,,,,,,,,,,,,,,,,,,,,,,,,,,,,,,,,,,,,,,,,,,,,,,,,,,,,
41.98073561166667,-91.79069488166667,255.747,0.9,RTK fixed,13,"$GPGGA,115739.00,4158.8441367,N,09147.4416929,W,4,13,0.9,255.747,M,-32.00,M,01,0000*6E
",2023-06-26 19:06:37.968212,1,,,,,,,,,,,,,,,,,,,,,,,,,,,,,,,,,,,,,,,,,,,,,,,,,,,,,,,,,,,,,,,,,,,,,,,,,,,,,,,,,,,,,,,,,,,,,,,,,,,,
41.98073561166667,-91.79069488166667,255.747,0.9,RTK fixed,13,"$GPGGA,115739.00,4158.8441367,N,09147.4416929,W,4,13,0.9,255.747,M,-32.00,M,01,0000*6E
",2023-06-26 19:06:38.162909,1,,,,,,,,,,,,,,,,,,,,,,,,,,,,,,,,,,,,,,,,,,,,,,,,,,,,,,,,,,,,,,,,,,,,,,,,,,,,,,,,,,,,,,,,,,,,,,,,,,,,
,,,,,,,2023-06-26 19:06:38.273610,1,0.0,0.0,0.0,0.9710831482852208,23.49,,,,,,,,,,,,,,,,,,,,,,,,,,,,,,,,,,,,,,,,,,,,,,,,,,,,,,,,,,,,,,,,,,,,,,,,,,,,,,,,,,,,,,,,,,,,,,,
41.98073561166667,-91.79069488166667,255.747,0.9,RTK fixed,13,"$GPGGA,115739.00,4158.8441367,N,09147.4416929,W,4,13,0.9,255.747,M,-32.00,M,01,0000*6E
",2023-06-26 19:06:38.275115,1,,,,,,,,,,,,,,,,,,,,,,,,,,,,,,,,,,,,,,,,,,,,,,,,,,,,,,,,,,,,,,,,,,,,,,,,,,,,,,,,,,,,,,,,,,,,,,,,,,,,
41.98073561166667,-91.79069488166667,255.747,0.9,RTK fixed,13,"$GPGGA,115739.00,4158.8441367,N,09147.4416929,W,4,13,0.9,255.747,M,-32.00,M,01,0000*6E
",2023-06-26 19:06:38.342916,1,,,,,,,,,,,,,,,,,,,,,,,,,,,,,,,,,,,,,,,,,,,,,,,,,,,,,,,,,,,,,,,,,,,,,,,,,,,,,,,,,,,,,,,,,,,,,,,,,,,,
,,,,,,,2023-06-26 19:06:38.345122,1,,,,,,0,433 MHz Radio,-78 db,23,Bad,0,0,5290591,KMGNL,,,,,,,,,,,,228,,,,,,,,,,,,,,,,,,,-0.0060604894533753395,8.39694574248649e-28,-53037481984.0,415701536.0,6.195417967875953e-39,4.307188727708988e-28,3.972230510298674e-34,-3.1530401661990226e-14,2.6872135198400693e-36,-3071.4,-2.6037750162684854,1.5707963267948966,-1.5480901616749583,"[0.81, -1.18, 0.64, 0.28]","[-2.6037750162684854, 1.5707963267948966, -1.5480901616749583]",,,,,,,,,,,,,,,,,,,,,,,,,,,,,,,,,,,,,,,,,
,,,,,,,2023-06-26 19:06:38.604247,1,,,,,,,,,,,,,,,,,,,,,,,,,,,,,,,,,,,,,,,,,,,,,,,,,,,,,,,,,,,,,,,,,,,,,,,,,,,,,,,,,,,,,,,,,,,,,,,,,,,,
41.98073561166667,-91.79069488166667,255.747,0.9,RTK fixed,13,"$GPGGA,115739.00,4158.8441367,N,09147.4416929,W,4,13,0.9,255.747,M,-32.00,M,01,0000*6E
",2023-06-26 19:06:38.604912,1,,,,,,,,,,,,,,,,,,,,,,,,,,,,,,,,,,,,,,,,,,,,,,,,,,,,,,,,,,,,,,,,,,,,,,,,,,,,,,,,,,,,,,,,,,,,,,,,,,,,
41.98073561166667,-91.79069488166667,255.747,0.9,RTK fixed,13,"$GPGGA,115739.00,4158.8441367,N,09147.4416929,W,4,13,0.9,255.747,M,-32.00,M,01,0000*6E
",2023-06-26 19:06:38.682073,1,,,,,,,,,,,,,,,,,,,,,,,,,,,,,,,,,,,,,,,,,,,,,,,,,,,,,,,,,,,,,,,,,,,,,,,,,,,,,,,,,,,,,,,,,,,,,,,,,,,,
,,,,,,,2023-06-26 19:06:38.793422,1,,,,,,0,433 MHz Radio,-78 db,30,Bad,32,0,1555419,Iý6GnL,,,,,,,,,,,,4,,,,,,,,,,,,,,,,,,,2.497927737574904e-38,9.4720769696036e-41,2.350995427877204e-38,-2.880893863772459e-37,-7.057593752982311e-38,2.0662986635548023e-40,-1.7059535151725194e-32,1.9721677795779604e-31,3.155790288274037e-29,38.800000000000004,0.0,0.0,1.4496256123175035,"[1.16, 0.0, 0.0, 0.64]","[0.0, 0.0, 1.4496256123175035]",,,,,,,,,,,,,,,,,,,,,,,,,,,,,,,,,,,,,,,,,
,,,,,,,2023-06-26 19:06:38.968690,1,,,,,,0,433 MHz Radio,-78 db,21,Bad,16,0,240812,KM6GNÌ,,,,,,,,,,,,59,,,,,,,,,,,,,,,,,,,-7.588660776373792e+24,3.0139640806455494e-37,-52970881024.0,-103924872.0,6.195415165279024e-39,4.591774807899561e-41,0.0,2.842170943040401e-14,2.6989655934890372e-36,103.0,-2.922172333633341,0.35927968347946587,-1.5178619977082088,"[0.2, -0.54, 0.6900000000000001, 0.07]","[-2.922172333633341, 0.35927968347946587, -1.5178619977082088]",,,,,,,,,,,,,,,,,,,,,,,,,,,,,,,,,,,,,,,,,
41.98073561166667,-91.79069488166667,255.747,0.9,RTK fixed,13,"$GPGGA,115739.00,4158.8441367,N,09147.4416929,W,4,13,0.9,255.747,M,-32.00,M,01,0000*6E
",2023-06-26 19:06:38.987287,1,,,,,,,,,,,,,,,,,,,,,,,,,,,,,,,,,,,,,,,,,,,,,,,,,,,,,,,,,,,,,,,,,,,,,,,,,,,,,,,,,,,,,,,,,,,,,,,,,,,,
41.98073561166667,-91.79069488166667,255.747,0.9,RTK fixed,13,"$GPGGA,115739.00,4158.8441367,N,09147.4416929,W,4,13,0.9,255.747,M,-32.00,M,01,0000*6E
",2023-06-26 19:06:38.988696,1,,,,,,,,,,,,,,,,,,,,,,,,,,,,,,,,,,,,,,,,,,,,,,,,,,,,,,,,,,,,,,,,,,,,,,,,,,,,,,,,,,,,,,,,,,,,,,,,,,,,
41.98073561166667,-91.79069488166667,255.747,0.9,RTK fixed,13,"$GPGGA,115739.00,4158.8441367,N,09147.4416929,W,4,13,0.9,255.747,M,-32.00,M,01,0000*6E
",2023-06-26 19:06:39.267761,1,,,,,,,,,,,,,,,,,,,,,,,,,,,,,,,,,,,,,,,,,,,,,,,,,,,,,,,,,,,,,,,,,,,,,,,,,,,,,,,,,,,,,,,,,,,,,,,,,,,,
41.98073561166667,-91.79069488166667,255.747,0.9,RTK fixed,13,"$GPGGA,115739.00,4158.8441367,N,09147.4416929,W,4,13,0.9,255.747,M,-32.00,M,01,0000*6E
",2023-06-26 19:06:39.614256,1,,,,,,,,,,,,,,,,,,,,,,,,,,,,,,,,,,,,,,,,,,,,,,,,,,,,,,,,,,,,,,,,,,,,,,,,,,,,,,,,,,,,,,,,,,,,,,,,,,,,
41.98073561166667,-91.79069488166667,255.747,0.9,RTK fixed,13,"$GPGGA,115739.00,4158.8441367,N,09147.4416929,W,4,13,0.9,255.747,M,-32.00,M,01,0000*6E
",2023-06-26 19:06:39.614598,1,,,,,,,,,,,,,,,,,,,,,,,,,,,,,,,,,,,,,,,,,,,,,,,,,,,,,,,,,,,,,,,,,,,,,,,,,,,,,,,,,,,,,,,,,,,,,,,,,,,,
41.98073561166667,-91.79069488166667,255.747,0.9,RTK fixed,13,"$GPGGA,115739.00,4158.8441367,N,09147.4416929,W,4,13,0.9,255.747,M,-32.00,M,01,0000*6E
",2023-06-26 19:06:39.773851,1,,,,,,,,,,,,,,,,,,,,,,,,,,,,,,,,,,,,,,,,,,,,,,,,,,,,,,,,,,,,,,,,,,,,,,,,,,,,,,,,,,,,,,,,,,,,,,,,,,,,
41.98073561166667,-91.79069488166667,255.747,0.9,RTK fixed,13,"$GPGGA,115739.00,4158.8441367,N,09147.4416929,W,4,13,0.9,255.747,M,-32.00,M,01,0000*6E
",2023-06-26 19:06:39.948518,1,,,,,,,,,,,,,,,,,,,,,,,,,,,,,,,,,,,,,,,,,,,,,,,,,,,,,,,,,,,,,,,,,,,,,,,,,,,,,,,,,,,,,,,,,,,,,,,,,,,,
41.98073561166667,-91.79069488166667,255.747,0.9,RTK fixed,13,"$GPGGA,115739.00,4158.8441367,N,09147.4416929,W,4,13,0.9,255.747,M,-32.00,M,01,0000*6E
",2023-06-26 19:06:40.159885,1,,,,,,,,,,,,,,,,,,,,,,,,,,,,,,,,,,,,,,,,,,,,,,,,,,,,,,,,,,,,,,,,,,,,,,,,,,,,,,,,,,,,,,,,,,,,,,,,,,,,
,,,,,,,2023-06-26 19:06:40.268133,1,0.0,0.0,0.0,0.972514187021959,23.64,,,,,,,,,,,,,,,,,,,,,,,,,,,,,,,,,,,,,,,,,,,,,,,,,,,,,,,,,,,,,,,,,,,,,,,,,,,,,,,,,,,,,,,,,,,,,,,
41.98073561166667,-91.79069488166667,255.747,0.9,RTK fixed,13,"$GPGGA,115739.00,4158.8441367,N,09147.4416929,W,4,13,0.9,255.747,M,-32.00,M,01,0000*6E
",2023-06-26 19:06:40.268615,1,,,,,,,,,,,,,,,,,,,,,,,,,,,,,,,,,,,,,,,,,,,,,,,,,,,,,,,,,,,,,,,,,,,,,,,,,,,,,,,,,,,,,,,,,,,,,,,,,,,,
41.98073561166667,-91.79069488166667,255.747,0.9,RTK fixed,13,"$GPGGA,115739.00,4158.8441367,N,09147.4416929,W,4,13,0.9,255.747,M,-32.00,M,01,0000*6E
",2023-06-26 19:06:40.610727,1,,,,,,,,,,,,,,,,,,,,,,,,,,,,,,,,,,,,,,,,,,,,,,,,,,,,,,,,,,,,,,,,,,,,,,,,,,,,,,,,,,,,,,,,,,,,,,,,,,,,
41.98073561166667,-91.79069488166667,255.747,0.9,RTK fixed,13,"$GPGGA,115739.00,4158.8441367,N,09147.4416929,W,4,13,0.9,255.747,M,-32.00,M,01,0000*6E
",2023-06-26 19:06:40.611288,1,,,,,,,,,,,,,,,,,,,,,,,,,,,,,,,,,,,,,,,,,,,,,,,,,,,,,,,,,,,,,,,,,,,,,,,,,,,,,,,,,,,,,,,,,,,,,,,,,,,,
41.98073561166667,-91.79069488166667,255.747,0.9,RTK fixed,13,"$GPGGA,115739.00,4158.8441367,N,09147.4416929,W,4,13,0.9,255.747,M,-32.00,M,01,0000*6E
",2023-06-26 19:06:40.929401,1,,,,,,,,,,,,,,,,,,,,,,,,,,,,,,,,,,,,,,,,,,,,,,,,,,,,,,,,,,,,,,,,,,,,,,,,,,,,,,,,,,,,,,,,,,,,,,,,,,,,
41.98073561166667,-91.79069488166667,255.747,0.9,RTK fixed,13,"$GPGGA,115739.00,4158.8441367,N,09147.4416929,W,4,13,0.9,255.747,M,-32.00,M,01,0000*6E
",2023-06-26 19:06:40.929724,1,,,,,,,,,,,,,,,,,,,,,,,,,,,,,,,,,,,,,,,,,,,,,,,,,,,,,,,,,,,,,,,,,,,,,,,,,,,,,,,,,,,,,,,,,,,,,,,,,,,,
41.98073561166667,-91.79069488166667,255.747,0.9,RTK fixed,13,"$GPGGA,115739.00,4158.8441367,N,09147.4416929,W,4,13,0.9,255.747,M,-32.00,M,01,0000*6E
",2023-06-26 19:06:41.288175,1,,,,,,,,,,,,,,,,,,,,,,,,,,,,,,,,,,,,,,,,,,,,,,,,,,,,,,,,,,,,,,,,,,,,,,,,,,,,,,,,,,,,,,,,,,,,,,,,,,,,
41.98073561166667,-91.79069488166667,255.747,0.9,RTK fixed,13,"$GPGGA,115739.00,4158.8441367,N,09147.4416929,W,4,13,0.9,255.747,M,-32.00,M,01,0000*6E
",2023-06-26 19:06:41.289000,1,,,,,,,,,,,,,,,,,,,,,,,,,,,,,,,,,,,,,,,,,,,,,,,,,,,,,,,,,,,,,,,,,,,,,,,,,,,,,,,,,,,,,,,,,,,,,,,,,,,,
41.98073561166667,-91.79069488166667,255.747,0.9,RTK fixed,13,"$GPGGA,115739.00,4158.8441367,N,09147.4416929,W,4,13,0.9,255.747,M,-32.00,M,01,0000*6E
",2023-06-26 19:06:41.598941,1,,,,,,,,,,,,,,,,,,,,,,,,,,,,,,,,,,,,,,,,,,,,,,,,,,,,,,,,,,,,,,,,,,,,,,,,,,,,,,,,,,,,,,,,,,,,,,,,,,,,
41.98073561166667,-91.79069488166667,255.747,0.9,RTK fixed,13,"$GPGGA,115739.00,4158.8441367,N,09147.4416929,W,4,13,0.9,255.747,M,-32.00,M,01,0000*6E
",2023-06-26 19:06:41.599701,1,,,,,,,,,,,,,,,,,,,,,,,,,,,,,,,,,,,,,,,,,,,,,,,,,,,,,,,,,,,,,,,,,,,,,,,,,,,,,,,,,,,,,,,,,,,,,,,,,,,,
41.98073561166667,-91.79069488166667,255.747,0.9,RTK fixed,13,"$GPGGA,115739.00,4158.8441367,N,09147.4416929,W,4,13,0.9,255.747,M,-32.00,M,01,0000*6E
",2023-06-26 19:06:41.942543,1,,,,,,,,,,,,,,,,,,,,,,,,,,,,,,,,,,,,,,,,,,,,,,,,,,,,,,,,,,,,,,,,,,,,,,,,,,,,,,,,,,,,,,,,,,,,,,,,,,,,
41.98073561166667,-91.79069488166667,255.747,0.9,RTK fixed,13,"$GPGGA,115739.00,4158.8441367,N,09147.4416929,W,4,13,0.9,255.747,M,-32.00,M,01,0000*6E
",2023-06-26 19:06:41.943286,1,,,,,,,,,,,,,,,,,,,,,,,,,,,,,,,,,,,,,,,,,,,,,,,,,,,,,,,,,,,,,,,,,,,,,,,,,,,,,,,,,,,,,,,,,,,,,,,,,,,,
41.98073561166667,-91.79069488166667,255.747,0.9,RTK fixed,13,"$GPGGA,115739.00,4158.8441367,N,09147.4416929,W,4,13,0.9,255.747,M,-32.00,M,01,0000*6E
",2023-06-26 19:06:42.158311,1,,,,,,,,,,,,,,,,,,,,,,,,,,,,,,,,,,,,,,,,,,,,,,,,,,,,,,,,,,,,,,,,,,,,,,,,,,,,,,,,,,,,,,,,,,,,,,,,,,,,
,,,,,,,2023-06-26 19:06:42.318448,1,0.0,0.0,0.0,0.9723562792992845,23.72,,,,,,,,,,,,,,,,,,,,,,,,,,,,,,,,,,,,,,,,,,,,,,,,,,,,,,,,,,,,,,,,,,,,,,,,,,,,,,,,,,,,,,,,,,,,,,,
41.98073561166667,-91.79069488166667,255.747,0.9,RTK fixed,13,"$GPGGA,115739.00,4158.8441367,N,09147.4416929,W,4,13,0.9,255.747,M,-32.00,M,01,0000*6E
",2023-06-26 19:06:42.319280,1,,,,,,,,,,,,,,,,,,,,,,,,,,,,,,,,,,,,,,,,,,,,,,,,,,,,,,,,,,,,,,,,,,,,,,,,,,,,,,,,,,,,,,,,,,,,,,,,,,,,
41.98073561166667,-91.79069488166667,255.747,0.9,RTK fixed,13,"$GPGGA,115739.00,4158.8441367,N,09147.4416929,W,4,13,0.9,255.747,M,-32.00,M,01,0000*6E
",2023-06-26 19:06:42.320563,1,,,,,,,,,,,,,,,,,,,,,,,,,,,,,,,,,,,,,,,,,,,,,,,,,,,,,,,,,,,,,,,,,,,,,,,,,,,,,,,,,,,,,,,,,,,,,,,,,,,,
,,,,,,,2023-06-26 19:06:42.321707,1,,,,,,0,433 MHz Radio,-75 db,13,Bad,0,0,244215,KM6GNL,,,,,,,,,,,,6,,,,,,,,,,,,,,,,,,,0.0,0.0,3.851859888774472e-34,-0.0,-0.0,-0.0,88.5,0.0,0.0,90.0,0.0,0.0,0.0,"[1.0, 0.0, 0.0, 0.0]","[0.0, 0.0, 0.0]",,,,,,,,,,,,,,,,,,,,,,,,,,,,,,,,,,,,,,,,,
,,,,,,,2023-06-26 19:06:42.514204,1,,,,,,0,433 MHz Radio,-74 db,10,Good,0,0,244215,KM6GNL,25.350000381469727,-333739.125,-2571.580810546875,34.1291748046875,-118.207568359375,246.3000030517578,0.0,0.0,0.0,2023-06-26 19:06:38,4,6,0,1828186.814343893,,,,,,,,,,,,,,,,,,,,,,,,,,,,,,,,,,,,,,,,,,,,,,,,,,,,,,,,,,,,,,,,,,,,,,,,
,,,,,,,2023-06-26 19:06:42.571535,1,,,,,,0,433 MHz Radio,-74 db,12,Good,0,0,244412,KM6GNL,,,,,,,,,,,,6,,,,,,,,,,,,,,,,,,,0.0,0.0,0.0,-0.0,-0.0,-0.0,88.5,0.0,0.0,90.0,0.0,0.0,0.0,"[1.0, 0.0, 0.0, 0.0]","[0.0, 0.0, 0.0]",,,,,,,,,,,,,,,,,,,,,,,,,,,,,,,,,,,,,,,,,
,,,,,,,2023-06-26 19:06:42.601190,1,,,,,,0,433 MHz Radio,-76 db,18,Bad,0,0,244412,KM6GNL,25.349878311157227,-334240.75,-2573.493408203125,34.1291748046875,-118.207568359375,246.3000030517578,0.0,0.0,0.0,2023-06-26 19:06:38,4,6,0,1828186.814343893,,,,,,,,,,,,,,,,,,,,,,,,,,,,,,,,,,,,,,,,,,,,,,,,,,,,,,,,,,,,,,,,,,,,,,,,
41.98073561166667,-91.79069488166667,255.747,0.9,RTK fixed,13,"$GPGGA,115739.00,4158.8441367,N,09147.4416929,W,4,13,0.9,255.747,M,-32.00,M,01,0000*6E
",2023-06-26 19:06:42.608897,1,,,,,,,,,,,,,,,,,,,,,,,,,,,,,,,,,,,,,,,,,,,,,,,,,,,,,,,,,,,,,,,,,,,,,,,,,,,,,,,,,,,,,,,,,,,,,,,,,,,,
41.98073561166667,-91.79069488166667,255.747,0.9,RTK fixed,13,"$GPGGA,115739.00,4158.8441367,N,09147.4416929,W,4,13,0.9,255.747,M,-32.00,M,01,0000*6E
",2023-06-26 19:06:42.716425,1,,,,,,,,,,,,,,,,,,,,,,,,,,,,,,,,,,,,,,,,,,,,,,,,,,,,,,,,,,,,,,,,,,,,,,,,,,,,,,,,,,,,,,,,,,,,,,,,,,,,
,,,,,,,2023-06-26 19:06:42.736351,1,,,,,,0,433 MHz Radio,-18 db,32,Bad,0,0,244609,IM6GNl,1.3563156426940112e-19,1.3563156426940112e-19,1.3563156426940112e-19,1.3563156426940112e-19,1.3563156426940112e-19,1.3563156426940112e-19,1.3563156426940112e-19,6.97748444490078e-20,1.3563156426940112e-19,1987-01-29 19:38:08,32,32,32,6336484.49931938,,,,,,,,,,,,,,,,,,,,,,,,,,,,,,,,,,,,,,,,,,,,,,,,,,,,,,,,,,,,,,,,,,,,,,,,
,,,,,,,2023-06-26 19:06:42.901635,1,,,,,,0,433 MHz Radio,-76 db,21,Bad,0,0,134462337,KM6GNl,,,,,,,,,,,,,,,,,,,,,,,,,,,,,,,,,,,,,,,,,,,,,,,,,,,,,,,,,,,,,,,,,,,,,,,,,,,,,,,,,,,,,,
,,,,,,,2023-06-26 19:06:42.918961,1,,,,,,0,433 MHz Radio,-74 db,12,Bad,0,144,244806,KM6GNL,,,,,,,,,,,,6,,,,,,,,,,,,,,,,,,,0.0,0.0,0.0,-0.0,-0.0,-0.0,88.5,1.8367099231598242e-40,0.0,-3186.8,0.0,0.0,0.0,"[1.0, 0.0, 0.0, 0.0]","[0.0, 0.0, 0.0]",,,,,,,,,,,,,,,,,,,,,,,,,,,,,,,,,,,,,,,,,
,,,,,,,2023-06-26 19:06:42.947797,1,,,,,,0,433 MHz Radio,-76 db,15,Bad,0,0,244806,KM6GNL,25.360000610351562,-335245.125,-2577.319580078125,34.1291748046875,-113.007568359375,246.2990264892578,0.0,0.0,0.0,2023-06-26 19:06:39,4,6,0,1365631.1016583566,,,,,,,,,,,,,,,,,,,,,,,,,,,,,,,,,,,,,,,,,,,,,,,,,,,,,,,,,,,,,,,,,,,,,,,,
,,,,,,,2023-06-26 19:06:42.986553,1,,,,,,0,433 MHz Radio,-77 db,15,Bad,0,0,244821,KM6GNL,,,,,,,,,,,,,,,"[False, False, False, False, False, False]","[False, False, False, False, False, False, False, False, False, False, False, False, False, False, False, False]",4,,,,,,,,,,,,,,,,,,,,,,,,,,,,,,,,,,,,,,,,,,,,,,,,,,,,,,,,,,,,,,,,,,,,,
41.98073561166667,-91.79069488166667,255.747,0.9,RTK fixed,13,"$GPGGA,115739.00,4158.8441367,N,09147.4416929,W,4,13,0.9,255.747,M,-32.00,M,01,0000*6E
",2023-06-26 19:06:42.988539,1,,,,,,,,,,,,,,,,,,,,,,,,,,,,,,,,,,,,,,,,,,,,,,,,,,,,,,,,,,,,,,,,,,,,,,,,,,,,,,,,,,,,,,,,,,,,,,,,,,,,
41.98073561166667,-91.79069488166667,255.747,0.9,RTK fixed,13,"$GPGGA,115739.00,4158.8441367,N,09147.4416929,W,4,13,0.9,255.747,M,-32.00,M,01,0000*6E
",2023-06-26 19:06:42.990178,1,,,,,,,,,,,,,,,,,,,,,,,,,,,,,,,,,,,,,,,,,,,,,,,,,,,,,,,,,,,,,,,,,,,,,,,,,,,,,,,,,,,,,,,,,,,,,,,,,,,,
41.98073561166667,-91.79069488166667,255.747,0.9,RTK fixed,13,"$GPGGA,115739.00,4158.8441367,N,09147.4416929,W,4,13,0.9,255.747,M,-32.00,M,01,0000*6E
",2023-06-26 19:06:42.992024,1,,,,,,,,,,,,,,,,,,,,,,,,,,,,,,,,,,,,,,,,,,,,,,,,,,,,,,,,,,,,,,,,,,,,,,,,,,,,,,,,,,,,,,,,,,,,,,,,,,,,
41.98073561166667,-91.79069488166667,255.747,0.9,RTK fixed,13,"$GPGGA,115739.00,4158.8441367,N,09147.4416929,W,4,13,0.9,255.747,M,-32.00,M,01,0000*6E
",2023-06-26 19:06:42.993346,1,,,,,,,,,,,,,,,,,,,,,,,,,,,,,,,,,,,,,,,,,,,,,,,,,,,,,,,,,,,,,,,,,,,,,,,,,,,,,,,,,,,,,,,,,,,,,,,,,,,,
,,,,,,,2023-06-26 19:06:43.037018,1,,,,,,0,433 MHz Radio,-75 db,9,Bad,0,0,244821,KM6GNL,,,,,,,,,,,,,,,,,,0,0,2080,0,0.0,1.1479437019748901e-41,0.0,0.0,0.0,0,0,4096,32768,,,,,,,,,,,,,,,,,,,,,,,,,,,,,,,,,,,,,,,,,,,,,,,,,,,,,,,,
,,,,,,,2023-06-26 19:06:43.077214,1,,,,,,0,433 MHz Radio,-77 db,20,Bad,0,0,244821,KM6GNL,,,,,,,,,,,,,,,,,,,,,,,,,,,,,,,,,,,,,,,,,,,,,,0.0,0.0,0.0,0.0,0.0,0.0,,,,,,,,,,,,,,,,,,,,,,,,,,,,,,,,,,,
,,,,,,,2023-06-26 19:06:43.125628,1,,,,,,0,433 MHz Radio,-76 db,17,Bad,0,0,245003,KM6GNL,,,,,,,,,,,,6,,,,,,,,,,,,,,,,,,,0.0,9.183549615799121e-41,0.0,-0.0,-0.0,-0.0,92.5,0.0,0.0,90.0,0.0,0.0,0.0,"[1.0, 0.0, 0.0, 0.0]","[0.0, 0.0, 0.0]",,,,,,,,,,,,,,,,,,,,,,,,,,,,,,,,,,,,,,,,,
,,,,,,,2023-06-26 19:06:43.270977,1,,,,,,0,433 MHz Radio,-76 db,19,Bad,0,0,245003,KM6GNL,25.3700008392334,-335747.875,-2579.232666015625,34.1291748046875,-98.07423502604166,15.393750190734863,0.0,0.0,0.0,2023-06-26 19:06:38,4,6,0,25.084084790184814,,,,,,,,,,,,,,,,,,,,,,,,,,,,,,,,,,,,,,,,,,,,,,,,,,,,,,,,,,,,,,,,,,,,,,,,
41.98073561166667,-91.79069488166667,255.747,0.9,RTK fixed,13,"$GPGGA,115739.00,4158.8441367,N,09147.4416929,W,4,13,0.9,255.747,M,-32.00,M,01,0000*6E
",2023-06-26 19:06:43.273030,1,,,,,,,,,,,,,,,,,,,,,,,,,,,,,,,,,,,,,,,,,,,,,,,,,,,,,,,,,,,,,,,,,,,,,,,,,,,,,,,,,,,,,,,,,,,,,,,,,,,,
41.98073561166667,-91.79069488166667,255.747,0.9,RTK fixed,13,"$GPGGA,115739.00,4158.8441367,N,09147.4416929,W,4,13,0.9,255.747,M,-32.00,M,01,0000*6E
",2023-06-26 19:06:43.274493,1,,,,,,,,,,,,,,,,,,,,,,,,,,,,,,,,,,,,,,,,,,,,,,,,,,,,,,,,,,,,,,,,,,,,,,,,,,,,,,,,,,,,,,,,,,,,,,,,,,,,
,,,,,,,2023-06-26 19:06:43.318528,1,,,,,,0,433 MHz Radio,-77 db,15,Bad,0,0,245200,KM6GNL,,,,,,,,,,,,6,,,,,,,,,,,,,,,,,,,0.0,0.0,3.587324068671532e-43,-0.0,-0.0,-0.0,88.5,2.802596928649634e-45,0.0,90.0,0.0,0.0,0.0,"[1.0, 0.0, 0.0, 0.0]","[0.0, 0.0, 0.0]",,,,,,,,,,,,,,,,,,,,,,,,,,,,,,,,,,,,,,,,,
,,,,,,,2023-06-26 19:06:43.491183,1,,,,,,0,433 MHz Radio,-75 db,13,Bad,0,0,243152,KL6GN,25.3700008392334,-336251.0,-2581.1455078125,34.1291748046875,-118.207568359375,246.3000030517578,0.0,0.0,0.0,2023-06-26 19:06:38,4,6,0,1828186.814343893,,,,,,,,,,,,,,,,,,,,,,,,,,,,,,,,,,,,,,,,,,,,,,,,,,,,,,,,,,,,,,,,,,,,,,,,
,,,,,,,2023-06-26 19:06:43.617976,1,,,,,,0,433 MHz Radio,-76 db,17,Bad,0,0,245412,KM6GNL,25.360000610351562,-336793.25,-2583.20556640625,34.1291748046875,-118.207568359375,246.3000030517578,0.0,0.0,1.793662034335766e-43,2023-06-26 19:06:38,68,6,0,1828186.814343893,,,,,,,,,,,,,,,,,,,,,,,,,,,,,,,,,,,,,,,,,,,,,,,,,,,,,,,,,,,,,,,,,,,,,,,,
41.98073561166667,-91.79069488166667,255.747,0.9,RTK fixed,13,"$GPGGA,115739.00,4158.8441367,N,09147.4416929,W,4,13,0.9,255.747,M,-32.00,M,01,0000*6E
",2023-06-26 19:06:43.628148,1,,,,,,,,,,,,,,,,,,,,,,,,,,,,,,,,,,,,,,,,,,,,,,,,,,,,,,,,,,,,,,,,,,,,,,,,,,,,,,,,,,,,,,,,,,,,,,,,,,,,
41.98073561166667,-91.79069488166667,255.747,0.9,RTK fixed,13,"$GPGGA,115739.00,4158.8441367,N,09147.4416929,W,4,13,0.9,255.747,M,-32.00,M,01,0000*6E
",2023-06-26 19:06:43.686890,1,,,,,,,,,,,,,,,,,,,,,,,,,,,,,,,,,,,,,,,,,,,,,,,,,,,,,,,,,,,,,,,,,,,,,,,,,,,,,,,,,,,,,,,,,,,,,,,,,,,,
,,,,,,,2023-06-26 19:06:43.712951,1,,,,,,0,433 MHz Radio,-77 db,16,Bad,0,0,245611,KI6ÇNL,,,,,,,,,,,,6,,,,,,,,,,,,,,,,,,,-0.0,0.0,7.346951796516443e-40,-0.0,-0.0,-0.0,88.5,2.524354896707238e-29,0.0,90.0,0.0,0.0,0.0,"[1.0, 0.0, 0.0, 0.0]","[0.0, 0.0, 0.0]",,,,,,,,,,,,,,,,,,,,,,,,,,,,,,,,,,,,,,,,,
,,,,,,,2023-06-26 19:06:43.875162,1,,,,,,0,433 MHz Radio,-77 db,21,Bad,16,32,245611,6GNL,25.37006950378418,-5.150651931762695,-4.768702217995809e+22,35.58750813802083,-118.20808919270833,246.3000030517578,9.327042578545982e-41,1.5118150395360522e-39,1.469379148915574e-39,2023-06-26 20:14:50,4,6,64,1819415.2132668316,,,,,,,,,,,,,,,,,,,,,,,,,,,,,,,,,,,,,,,,,,,,,,,,,,,,,,,,,,,,,,,,,,,,,,,,
